id,direccion,distrito,longitude,latitude
1514,OFELIA NIETO-FRANCOS RODRIGUEZ,9,-3.7098576727976815,40.459991075120776
1516,DR.FEDERICO RUBIO-FCO.DIEGO,9,-3.7130173091892007,40.45763829956834
1517,DR.FEDERICO RUBIO Y GALI-AV.PABLO IGLESIAS,9,-3.712438086343291,40.45528151979713
1518,DR.FEDERICO RUBIO-JERONIMA LLORENTE,6,-3.708309772200998,40.454108701509846
1519,DR.FEDERICO RUBIO-ABEL,6,-3.7081747229289252,40.452478903151516
1522,SAN FCO.DE SALES-GUZMAN EL BUENO,7,-3.711803014675607,40.4442764501771
1527,LAGO CALAFATE,13,-3.648203476949213,40.38588455612281
1528,GTA.PTE.GARCIA MORENO,7,-3.7136070172445232,40.447607661903355
1530,AV.REINA VICTORIA-GRAL.I.IBERO,7,-3.709442083972762,40.44851618471015
5430,"CALLE DE MIRABEL, 3",10,-3.7798304419383,40.3779995061193
3534,MARQUESADO STA.MARTA-FERNANDO MIJARES,20,-3.621149781654963,40.4496100388113
3539,STA.ENGRACIA-CARACAS,7,-3.695302462399076,40.43245797647746
3543,AV.NIZA-LAS MUSAS,20,-3.606308193971883,40.43447260381514
3545,DR.GARCIA TAPIA-FTE.CARRANTONA,14,-3.6305661524210735,40.40984718455873
3558,AV.BETANZOS-CHANTADA,8,-3.7102558458732884,40.4753939512039
3560,INDALECIO PRIETO-LOS PINILLAS,19,-3.619943577882982,40.40175142325167
3561,INDALECIO PRIETO-JUGLARES,19,-3.61916044329547,40.40373761971434
3565,PZA.CORR.ALONSO AGUILAR,14,-3.657783932898265,40.40909189982365
3566,JUAN ESPLANDIU Nº 9,3,-3.6610507624509077,40.420154404450095
3568,JUAN ESPLANDIU Nº 4,3,-3.6612343775423866,40.4184416347116
3501,Pº ALBERTO PALACIOS-Pº FERROVIARIOS,17,-3.715094684075901,40.34533652812352
3573,GASCUEÑA-FUENSAVIÑAN,20,-3.5693823066836394,40.449921728929155
3575,DR.GARCIA TAPIA-M40,14,-3.6241979515361233,40.40815200516446
3429,JOAQUIN LORENZO-ISLA MALAITA,8,-3.721267047358345,40.47470412879184
3431,ISLA MALAITA-JOAQUIN LORENZO,8,-3.7207614448376853,40.4748604356327
3432,ISLA MALAITA-CESAR MANRIQUE,8,-3.720254057105798,40.47595368171559
3439,GRAL.YAGUE-ORENSE,6,-3.693588523474117,40.458405185303164
3061,AV.PABLO NERUDA-MALGRAT MAR,13,-3.640038855404557,40.39459680058091
3065,SAN CLAUDIO-RAFAEL FERNANDEZ,13,-3.634296492123927,40.39291672205403
3007,CERRO DEL CASTAÑAR-MORALZARZAL,8,-3.712454843581688,40.49592077958302
3066,ANDALUCES-SAN CLAUDIO,13,-3.6356900175460156,40.39199914872848
2948,CTRA.VILLAVERDE A VALLECAS-AV.ROSALES,17,-3.681446759922049,40.36207149121182
2953,CTRA.CCHEL A VILLAVERDE-CENTRO ESCOLAR,17,-3.7100590781636376,40.355809152692544
2958,RAFAELA YBARRA-UNIDAD,12,-3.7108377862950976,40.3716424018997
2960,AV.MORERAS-CGIO.MAYOR ALFONSO X EL SABIO,9,-3.717712391726713,40.45330294536064
2961,ALMIRANTE FCO.MORENO-MORERAS,9,-3.7150056931723983,40.454959357413024
2964,CESAR MANRIQUE-JUAN SANCHEZ,8,-3.7192145218290587,40.475825022343976
2977,ALMIRANTE FCO.MORENO-MORERAS,9,-3.715335510766407,40.45492128046892
2978,AV.MORERAS-CGIO.MAYOR ALFONSO X EL SABIO,9,-3.7179823737065365,40.453184151632726
2979,AV.MORERAS-RAMIRO DE MAEZTU,9,-3.719776406648545,40.45110993528684
2354,J.JOSE MTNEZ.SECO-DIAMANTE,17,-3.6856015832852993,40.353677441301066
2355,J.JOSE MTNEZ.SECO-BENITA LOPEZ,17,-3.68797991095993,40.35363628782338
2357,VIRGEN DE LOS DESAMPARADOS-TOTANES,17,-3.697468706975084,40.353381241314054
2359,VIRGEN DE LOS DESAMPARADOS,17,-3.697256196823081,40.353328468095974
2360,ARROYO POZUELO-HINOJO,9,-3.773572903452133,40.45394253137675
2366,EMILIO RUBIN-ARTURO SORIA,15,-3.6602427505785022,40.46287076743313
2367,MONTEARAGON Nº 8,16,-3.657844946436264,40.4649384900371
2371,Cº DE MONTORO-Cº VIEJO DE BURGOS,16,-3.631688760025235,40.48194022115932
2374,Cº DEL OLIVAR-GRAMA,16,-3.627709729070916,40.47908804575976
2378,GREGORIO SANCHEZ HERRAEZ,16,-3.635325000173898,40.47968606235342
2382,AV.BUCARAMANGA-GTA.CHARALA,16,-3.638202281490677,40.47455311298288
2385,GRAN VIA HORTALEZA-HARO,16,-3.650170192692486,40.46902695705389
2254,ARROYOFRESNO-AV.C.HERRERA ORIA,8,-3.739896196956853,40.47914487045952
2255,CANTALEJO-ARROYOFRESNO,8,-3.7401815443706754,40.47719711304344
2265,AV.MIRAFLORES-CTRA.DEHESA VILLA,9,-3.728498662271048,40.45942462012186
2266,PARANINFO-CIEMAT,9,-3.7278410260797945,40.456410758907175
821,FTE.CARRANTONA-ARROYO FONTARRON,14,-3.6377283988525093,40.39824023340148
823,PZA.CONDE MACEDA Y TABOADA,14,-3.6418602456786773,40.405235441173566
826,PZA.DEL ENCUENTRO,14,-3.6494128663434364,40.40752660805816
828,AV.MORATALAZ Nº 21,14,-3.6591440408278286,40.409579650866675
830,Cº VINATEROS-M30,14,-3.6573124219469486,40.412716225708095
831,ESTRELLA POLAR-PEZ AUSTRAL,3,-3.663987414384892,40.41311951986588
833,AV.NAZARET-JESUS APRENDIZ,3,-3.669282569101337,40.41343132631321
836,MENENDEZ PELAYO-A.SAINZ BARANDA,3,-3.6768366009572198,40.41920718782717
840,JUAN PEREZ ZUÑIGA Nº 19,15,-3.6472777585663305,40.444205391826884
776,ALEGRIA DE LA HUERTA-ANOETA,17,-3.693720130418519,40.35530471985803
711,Pº PONTONES-Pº IMPERIAL,2,-3.714236053503206,40.40676588090402
713,Pº ERMITA DEL SANTO-PTE.SAN ISIDRO,11,-3.7232217804308507,40.40616946913315
714,VIA CARPETANA-CARAMUEL,10,-3.7289257188340192,40.403980479460806
719,VIA CARPETANA-PETIRROJO,10,-3.742649208794631,40.39166783880423
1551,AV.JUAN HERRERA-MARTIN FIERRO,9,-3.7304402936898415,40.44050251199306
723,"OCAÑA,69",10,-3.7521770157327983,40.38704765270918
726,AV.RAFAEL FINAT-AV.GRAL.FANJUL,10,-3.7636364288888995,40.38563017750488
728,AV.RAFAEL FINAT-JOSE DE CADALSO,10,-3.768946810992273,40.38121657112744
729,GRAL.ROMERO BASART-AV.RAFAEL FINAT,10,-3.770956507970461,40.37976173534739
730,GRAL.ROMERO BASART-O.PLASENCIA,10,-3.77306985482157,40.381198084605536
733,GRAL.ROMERO BASART-RAFAEL FINAT,10,-3.7708837764290926,40.37958203879736
734,AV.RAFAEL FINAT-JOSE DE CADALSO,10,-3.768862713092068,40.38107298523539
3402,GONZALEZ FEITO-CAL,12,-3.691191264420484,40.38211298365716
3409,VENTISQUERO CONDESA-C.MINGUETE,8,-3.7148995849692743,40.48943727383369
3410,SANTIAGO COMPOSTELA-NARCIS MONTURIOL,8,-3.6974884374638077,40.48651668648922
3414,ALEJANDRO CASONA-DR.REINOSA,8,-3.7294941508699853,40.48275151906742
3734,PTO.PORZUNA-FUENTIDUEÑA,18,-3.621265989367055,40.37639269376396
3735,PTO.PORZUNA-CONGOSTO,18,-3.619312612873289,40.377907698092066
3737,ALCALA-AV.25 DE SEPTIEMBRE,20,-3.62148729389415,40.444004614607636
3740,DR.ESQUERDO-PZA.CONDE CASAL,3,-3.6689327853667373,40.40786575132042
3741,DR.ESQUERDO-SAINZ DE BARANDA,3,-3.6681283765380686,40.41828487398587
3743,CEMENTERIO DE FUENCARRAL,8,-3.6993110585369364,40.508640581343435
3747,LOPEZ DE HOYOS-PADRE CLARET,5,-3.663908993661795,40.451885821280506
3748,Pº ERMITA DEL SANTO-PARQUE SAN ISIDRO,11,-3.731523682991489,40.401207298030855
3753,Pº ERMITA DEL SANTO-PARQUE SAN ISIDRO,11,-3.7311597616380068,40.40133572712884
3756,VALLE ENMEDIO-GTA.P.CORRALILLOS,8,-3.7169726359980184,40.490199196407275
3760,VENTISQUERO CONDESA-VALLE DE ENMEDIO,8,-3.7150294324684094,40.49055357703919
3763,GOLONDRINA-VELETA,9,-3.782083901128168,40.45767801877438
3766,CTRA.HUMERA A ARAVACA-RIAZA,9,-3.778651431122864,40.45866515466986
3779,GUECHO-PARADORES,9,-3.825427976039898,40.477979968604316
3785,AV.ROSALES-CORINDON,12,-3.6886165272963907,40.368749820652695
3788,AYACUCHO-NEVADO RUIZ,16,-3.633230524420005,40.47149038677501
3789,DR.GARCIA TAPIA-LAPONIA,14,-3.626288137577828,40.40860016242098
3791,LAPONIA-MUNICH,14,-3.626266830757898,40.40757324305177
3795,MERCAMADRID-MERCADO PESCADO,18,-3.6643834909118804,40.35990049267981
3796,MERCAMADRID-NAVES AUXILIARES,18,-3.6550249828416654,40.36520621555932
3797,CENTRO DE TRANSPORTES DE MADRID,18,-3.652820971937518,40.36748898245376
5482,AV.Cº SANTIAGO-GTA.MONTE DEL GOZO,8,-3.6663369946591393,40.51258317098544
1974,PEDRO RICO-ARZOBISPO MORCILLO,8,-3.6970338520384005,40.485915830940606
1846,CARRERA SAN FRANCISCO-SAN I.LABRADOR,1,-3.7113999835994234,40.412756368896396
1849,DIEGO DE LEON-SERRANO,4,-3.6843256142212897,40.43704601657878
1850,GRAL.ORAA-Pº CASTELLANA,4,-3.6863137213733026,40.43776395826434
1851,HERMANOS BECQUER-SERRANO,4,-3.6853649462743827,40.43722003842284
1855,AV.PABLO NERUDA-AV.PALOMERAS,13,-3.6455546577399978,40.38733182495003
1861,PARANINFO-MATEMATICAS,9,-3.7260040602044002,40.45229620251948
1862,PARANINFO-TELECOMUNICACIONES,9,-3.726366316504021,40.45417680260472
1863,PARANINFO-DERECHO,9,-3.7281462569911725,40.453003443636035
1870,ISAAC PERAL-PZA.CRISTO REY,9,-3.7163980334868287,40.44059040575309
1871,AV.MEDITERRANEO-PZA.CONDE CASAL,3,-3.6673703984875554,40.408379289666485
1872,EL BOSCO-MARUJA GARCIA ROMERO,13,-3.652471972617714,40.405779639807605
1873,EL BOSCO-RAMON PEREZ AYALA,13,-3.650011186997138,40.40356826148427
1874,EL BOSCO-RAMON PEREZ AYALA,13,-3.6485252103619326,40.402225245761706
1876,AV.MEDITERRANEO-AV.PABLO NERUDA,13,-3.639692699706273,40.396616753323954
1877,AV.MEDITERRANEO-AV.DEMOCRACIA,13,-3.622961732219414,40.39295133040506
1879,CASTRILLO AZA-AV.STA.EUGENIA,18,-3.609673358531177,40.385409475637125
1881,AV.STA.EUGENIA-VIRGEN DE LAS VIÑAS,18,-3.608031655298762,40.382337002728484
1884,AV.STA.EUGENIA-VIRGEN DE LAS VIÑAS,18,-3.6026050707756743,40.384158230748795
1499,ISAAC PERAL-FERNANDEZ DE LOS RIOS,7,-3.7167210266108204,40.43769651343378
1501,GRAL.IBAÑEZ IBERO-AV.REINA VICTORIA,7,-3.708899001174047,40.44845645425723
1502,DR.FEDERICO RUBIO-ALMANSA,6,-3.7074874340350212,40.45104167488787
1503,DR.FEDERICO RUBIO-ABEL,6,-3.7080828425549277,40.45271369973136
1506,DR.FEDERICO RUBIO-FCO.DE DIEGO,9,-3.7128868206938126,40.457567032782855
1508,OFELIA NIETO-FRANCOS RODRIGUEZ,6,-3.709527258336793,40.45997508629392
1510,OFELIA NIETO-Pº DIRECCION,6,-3.7060530972713472,40.464978324737466
1512,OFELIA NIETO-Pº DIRECCION,6,-3.7061836874810075,40.465058607476045
1791,AV.PABLO NERUDA-LAGO CALAFATE,13,-3.646923718955359,40.38511694128836
1793,RAFAEL ALBERTI-SAN CLAUDIO,13,-3.6381515742710646,40.39064323105897
1794,AVDA. PABLO NERUDA,13,-3.6473023443967123,40.385285995005255
1796,AV.BUENOS AIRES-MOGAMBO,13,-3.6516743416891004,40.38172986312777
1797,AV.PABLO NERUDA-TRISTANA,13,-3.652183362873785,40.38320448674439
1799,AV.MEDITERRANEO-CASTRILLO DE AZA,18,-3.6066612760167622,40.388479410982924
1800,MARTINEZ DE LA RIVA-DILIGENCIA,13,-3.6619430094720644,40.38490579438838
1802,CARLOS MARTIN ALVAREZ-JAVIER DE MIGUEL,13,-3.6626254943216097,40.39082987122715
2460,AVENA-HENO,12,-3.714504433209816,40.379764028217664
2465,FTE.CARRANTONA-LUIS HOYOS SAINZ,14,-3.6332228150799675,40.40533713292373
2466,FTE.CARRANTONA-HACIENDA PAVONES,14,-3.6346641895998464,40.40321209430198
2468,Pº ALAMEDA OSUNA-PQUE.CAPRICHO,21,-3.5968246192143685,40.45663912674996
2471,CARABELA-BALANDRO,21,-3.58800870542316,40.45732396017219
2472,CARABELA-GALEON,21,-3.58496659024025,40.457411471265345
2476,CTRA.CIRCUNVALACION-ZODIACO,21,-3.573950025759959,40.478088309615664
2479,PZA.HNOS.FALCO Y ALVAREZ TOLEDO,21,-3.575937380985064,40.47595230075695
2480,ACUARIO-PENELOPE,21,-3.5786259398091587,40.47718210865943
2484,BERGANTIN-GALEON,21,-3.580479581827689,40.46091157513377
2485,AV.CANTABRIA-PZA.GOLETA,21,-3.581650316888133,40.4612660486519
2488,AV.CANTABRIA-PZA.DEL NAVIO,21,-3.586555745950504,40.457061073695286
2490,AV.HISPANIDAD-PINOS DE OSUNA,21,-3.5898532006534376,40.45245870128781
2491,AVDA.AMERICA-CIUDAD PEGASO,21,-3.5953474855282876,40.45230440126562
2495,CTRA.CANILLAS-UTRILLAS,16,-3.643756142536697,40.46563945445893
2496,CTRA.CANILLAS-UTRILLAS,16,-3.6444162259194957,40.46559073045593
2500,AV.ENTREVIAS-T.PEREZ RUBIO,13,-3.6707610871026355,40.39140458134942
2502,CARDEÑOSA-CONDE RGUEZ.SAN PEDRO,13,-3.669780328835164,40.38636517482034
2504,CAMPIÑA-PZA.DE LAS REGIONES,13,-3.6695442777796305,40.381564690769444
2505,CAMPIÑA-SERENA,13,-3.667119436750833,40.379380485850874
2509,VILLACARRILLO-CAZORLA,13,-3.66296459239337,40.37735030789518
2512,MENDEZ ALVARO-EST.SUR AUTOBUSES,2,-3.6760903431420906,40.39529248989566
2513,SIERRA CONTRAVIESA-LAGARTERA,13,-3.670859760152835,40.383539067820855
2516,AVDA. ENTREVIAS,13,-3.6705955152678116,40.391342478263205
5441,OCA-PINZON,11,-3.738975140296825,40.39078146618542
3164,FUENCARRAL-ALBURQUERQUE,7,-3.7020565230276206,40.43345318555713
3165,FUENCARRAL-SANDOVAL,7,-3.7012588771270347,40.431575143186556
3166,FUENCARRAL-GTA.BILBAO,1,-3.7007500918667033,40.43026291203649
1618,JOSE DEL HIERRO-HERMANOS DE PABLO,15,-3.645407385293418,40.43974737826979
1619,JOSE DEL HIERRO-MANDARINA,15,-3.642822828105275,40.44197800175059
1624,AV.CANILLEJAS-ALBAIDA,20,-3.61030875330848,40.434883981961185
1627,AV.HELLIN-ALCONERA,20,-3.614753673567106,40.43488745208678
1628,ALBAIDA-AV.CANILLEJAS,20,-3.6111658444026484,40.43578936585707
1630,FRENTE N.5,20,-3.6101603598662546,40.4393352296511
3415,RAMON GOMEZ SERNA-ALEJANDRO CASONA,8,-3.7283739304911103,40.48499280049059
3423,RIBADAVIA-SINESIO DELGADO,8,-3.703335039900787,40.47466151304645
3320,BAJO PASO ELEVADO,3,-3.673413669824056,40.40338024604956
3337,NANCLARES DE OCA-ARAMAYONA,20,-3.5768320425321303,40.446776670063365
3251,SILVANO-COL.VIRGEN DE LA ESPERANZA,16,-3.640897593743425,40.46149319134001
3256,AV.MACHUPICHU-PZA.MANUEL RODRIGO,16,-3.631531085690644,40.462598810163136
3261,PEÑA CERVERA-FUENTIDUEÑA,18,-3.6189425335098884,40.3722249187025
3265,ASCAO-HNOS.Gª NOBLEJAS,15,-3.633651313753094,40.434677282818654
3186,GRAN VIA HORTALEZA-GTA.LUIS ROSALES,16,-3.653919052977486,40.468789588202355
3201,JAZMIN-GOLFO DE SALONICA,15,-3.660983577163184,40.48428985429459
3111,ALCALA-AVENIDA FELIPE II,4,-3.6747396904014784,40.42640866172062
3114,A.LOPEZ CASERO-PZA.JOSE BANUS,15,-3.6543447209919226,40.436075496561
3124,GTA.DE RUIZ JIMENEZ,1,-3.7039439977923077,40.43129755925994
2709,PZA.REGIONES-LAGARTERA,13,-3.670428604797637,40.38282984975023
2711,RUIDERA-BOHONAL,13,-3.6745761088353466,40.381706613632346
2712,RONDA SUR-STA.RAFAELA,13,-3.672276065066148,40.38024251765911
2717,RONDA SUR-SERENA,13,-3.668389095910561,40.377922685875525
2719,BOHONAL-RUIDERA,13,-3.6744798004990926,40.3814999661347
2720,RUIDERA,13,-3.6722572497559547,40.38308950415792
2721,CARLOS MARTIN ALVAREZ-AV.SAN DIEGO,13,-3.665079982605773,40.387617547938795
3708,VILLABLANCA-SEPIOLITA,19,-3.5986876829840773,40.407422071175596
3712,Pº ARTILLEROS-AV.DAROCA,19,-3.6076960129415947,40.40659127383461
3714,AV.DAROCA-CALAHORRA,19,-3.611719683052929,40.40843493095716
3715,AVDA. CANILLEJAS A VICALVARO,20,-3.609032423132678,40.41756630388181
3578,GTA.DE EMBAJADORES,2,-3.700436353812012,40.40684131159076
3581,HACIENDA PAVONES-CENTRO DE SALUD,14,-3.6277728423824067,40.40096141637866
3582,INDALECIO PRIETO-JOSE PRAT,19,-3.621371442482045,40.39940139348501
3584,JOSE PRAT-LADERA ALMENDROS,19,-3.6240620453327774,40.399819336075694
3587,JOSE PRAT-INDALECIO PRIETO,19,-3.620313336851781,40.39966833982096
3589,CHANTADA-CESAR MANRIQUE,8,-3.7189880817150556,40.47561021680656
3590,CHANTADA-CANDIDO MATEOS,8,-3.716847269017478,40.475091989449886
3591,CHANTADA-CANDIDO MATEOS,8,-3.7169077842342264,40.475235757176804
3593,AV.LOS ANDES-AV.ARROYO DEL SANTO,16,-3.6203286757892204,40.45649733232715
3594,AV.DE LOS ANDES-AÑIL,16,-3.616728714992801,40.458768851127004
3596,ARTURO SORIA-CALERUEGA,15,-3.6675904852902526,40.47948613555106
3598,GTA.DE RUIZ JIMENEZ,1,-3.7048056109008307,40.43139140764999
3599,LA CORTE DEL FARAON-E.BARREIROS,17,-3.697973592580597,40.36351346901788
3603,HACIENDA DE PAVONES-FTE.CARRANTONA,14,-3.634246674776752,40.402673840837
3604,HACIENDA DE PAVONES-FTE.CARRANTONA,14,-3.634176478641742,40.40272828045649
3606,ESTACION DE MENDEZ ALVARO,2,-3.675955823064076,40.397158156335216
3607,AV.SAN LUIS-SOLSONA,16,-3.650432935130622,40.47425068240443
3608,RAMIREZ DE PRADO-JUAN MARIANA,2,-3.684845368179216,40.4011148734727
3611,RIBERA DEL LOIRA Nº 52,21,-3.6182348382045926,40.463526563159505
3612,AV.25 SEPTIEMBRE-PZA.ENSIDESA,20,-3.6234717369766676,40.4456515861428
3613,GTA.RICARDO VELAZQUEZ BOSCO,20,-3.624979471229009,40.44929209430332
3614,AV.25 SEPTIEMBRE-PZA.J.A.SUANCES,20,-3.6239558105949294,40.4469913174945
3618,SUECIA-BUCAREST,20,-3.6030705199352866,40.42839041787692
3619,R.BELTRAN ROZPIDE-RAFAELA YBARRA,12,-3.7117705335637234,40.37744753530741
5483,VALCARLOS - Pº SAN MILLAN DE LA COGOLLA,8,-3.66577732271337,40.504928823592095
5485,Pº.SAN MILLAN DE LA COGOLLA-SIERRA ATAPUERCA,8,-3.667952324822548,40.5052676172155
1887,FUENTESPINA,18,-3.6033520067584512,40.382046200407274
1892,"ARROYO FONTARRON, 301",14,-3.6406967232827196,40.398115711133094
1894,ARROYO FONTARRON-E.PALACIOS,14,-3.6453956155219593,40.401522034298246
1895,AVDA.MEDITERRANEO-MORATALAZ,14,-3.647707166645813,40.40294154948693
1902,FCOS.RODRIGUEZ-INST.VIRGEN DE LA PALOMA,9,-3.713399797513539,40.46034763991849
1904,ANTONIO MACHADO-A.MARTIN ALZAGA,9,-3.717695809482697,40.46393363554038
1773,Pº. STA.Mª CABEZA-Pº.CHOPERA,2,-3.7010288911237916,40.39920704335109
3060,MALGRAT MAR-PONT MOLINS,13,-3.6429289536072225,40.39617537278554
1703,VICTOR SERNA-COLOMBIA,5,-3.670306982808498,40.4584344625202
1704,PARAGUAY-COSTA RICA,5,-3.670293632748531,40.460650750320774
1705,STA.Mª MAGDALENA-CTE.AZCARRAGA,5,-3.6685241754686526,40.46300333547709
1708,PUERTO RICO,5,-3.6729708602176303,40.46063519068153
1709,PTO.RICO-COLOMBIA,5,-3.6730623473457316,40.45916619350689
1710,PTO.RICO-URUGUAY,5,-3.672818491127502,40.457185636460416
1713,BIARRITZ,4,-3.6625897563767844,40.437641138177966
1715,AV.BADAJOZ-TANATORIO,15,-3.655092806704601,40.44269288910703
1718,LUIS CALVO-MTNEZ.IZQUIERDO,4,-3.6634714341642693,40.43737481863908
1720,AV.ALBUFERA-SIERRA CARBONERA,13,-3.661909126798865,40.397086282683205
1721,AV.ALBUFERA-SIERRA DEL CADI,13,-3.659540240462466,40.395838550001486
1722,AV.ALBUFERA-PAYASO FOFO,13,-3.656436728653451,40.39416250577891
1724,AVDA. ALBUFERA,13,-3.6490851347703672,40.393041843584975
3169,GRAN VIA HORTALEZA-LOPEZ DE HOYOS,16,-3.6518574674147946,40.46907150528775
3171,PADRE DAMIAN-SANTIAGO BERNABEU,5,-3.685571174298217,40.456353932052075
3173,PADRE DAMIAN-ALBERTO ALCOCER,5,-3.6839436015707894,40.46100320184534
3175,FRAY.B.SAHAGUN-PZA.M.MOLAS,5,-3.683222838188756,40.46436781359846
3177,ALFONSO XIII-PZA.PRESIDENTE CARDENAS,5,-3.6790956364489844,40.462139896744716
3178,PZA.PERU-AV.PIO XII,5,-3.6753951444014175,40.46244987068069
3180,FRAY.B.SAHAGUN-MENENDEZ PIDAL,5,-3.6807796906549552,40.46304890387825
3181,FRAY.B.SAHAGUN-PZA.M.MOLAS,5,-3.6832610523694056,40.464646865845715
3185,PADRE DAMIAN-SANTIAGO BERNABEU,5,-3.685795152895095,40.45634359413887
3188,TORRELAGUNA-RAFAEL BERGAMIN,15,-3.658187269718427,40.452882512516524
3189,EMETERIO CASTAÑOS-MANUEL URIBE,16,-3.6597558894735887,40.46615281698044
3191,AYACUCHO-MAR ADRIATICO,16,-3.63756329684186,40.471853948286935
3199,CUEVAS DE ALMANZORA-MOJACAR,16,-3.655663422515064,40.48197783772682
3200,ROQUETAS DE MAR-TIJOLA,16,-3.6585819534206028,40.48362789638976
3207,PTE.VALLECAS-M30,13,-3.667541410687621,40.40063951031835
3072,PIO FELIPE-BENJAMIN PALENCIA,13,-3.65086855096664,40.397148970803514
3073,MENDIVIL-DOCTOR SALGADO,13,-3.662057275556446,40.401382765809025
3074,SIERRA TOLEDANA,13,-3.659091315108365,40.401760077346765
3076,BALTASAR SANTOS-PTO.NAVACERRADA,13,-3.656059280313615,40.40383139426245
3077,MARISMAS-MARUJA GARCIA ROMERO,13,-3.653771934682137,40.40493445118389
3078,MARISMAS-RAMON PEREZ AYALA,13,-3.6521077886460787,40.40345735340339
3079,RAMON PEREZ DE AYALA Nº 94,13,-3.6490129475399553,40.40147475479168
5486,Pº.SAN MILLAN DE LA COGOLLA-AV.CNO.SANTIAGO,8,-3.6704227461572865,40.5080100355308
1997,VENTISQUERO CONDESA-C.HERRERA ORIA,8,-3.7134061495795354,40.485464557644406
1999,FERMIN CABALLERO-AV.BETANZOS,8,-3.7129365578310565,40.48345846374389
2004,VALENCIA DE DON JUAN-ALFREDO MARQUERIE,8,-3.699663258763658,40.48915216415924
2013,Pº. CASTELLANA-MONFORTE DE LEMOS,8,-3.6855564471130187,40.478101670198306
2018,FCO.SILVELA-PRINCIPE VERGARA,5,-3.6780461976114354,40.44105600126293
2019,GOYA-LOMBIA,4,-3.67186575711707,40.426659637906425
2025,Pº JUAN XXIII-BEATRIZ BOBADILLA,9,-3.7154062311964466,40.4504704055748
2027,PZA.MARQUES DE COMILLAS,9,-3.718345018425627,40.44737110286763
2028,ISAAC PERAL-JULIAN ROMEA,9,-3.7179051833165113,40.44482429128715
2033,FCO.SILVELA-PRINCIPE VERGARA,5,-3.678146316751973,40.441631990550846
2035,RAIMUNDO FDEZ.VILLAVERDE-Pº CASTELLANA,6,-3.691126969183163,40.44838391956164
2037,ARTURO SORIA-CELESTE,15,-3.656002491510548,40.45863366474799
1907,JUAN J.LOPEZ IBOR-ISLA CRISTINA,9,-3.724680079040076,40.4717548670625
1910,ISLAS ALEUTIANAS-AV.C.HERRERA ORIA,8,-3.7274982855148964,40.47929566239168
1645,AZCONA-VILLAFRANCA,4,-3.664725689978173,40.43782707182526
5562,EMBAJADORES-PQUE.LINEAL MANZANARES,13,-3.6796962692134585,40.374226092781576
3518,Pº MOLINO-PZA.LEGAZPI,2,-3.6928435999780134,40.39275183725828
3138,Pº MOLINO-PZA.LEGAZPI,2,-3.692947421665622,40.39253499703839
3799,PZA.MONCLOA,9,-3.716994809867434,40.435721842982495
3800,AV.PIO XII-PZA.PERU,5,-3.6752088722491374,40.46269420162714
3803,CTRA. DE VILLAVERDE A VALLECAS-COALICION,17,-3.685758679545104,40.357559449403546
3804,CTRA. DE VILLAVERDE A VALLECAS-COALICION,17,-3.685841202418046,40.35756796909404
3805,AV.CDAD.BARCELONA-M30,3,-3.669029430088847,40.400964243923084
3806,Pº CASTELLANA-GRAL.YAGUE,5,-3.6886047593586477,40.457759315483436
3808,ESTEBAN CARROS-COOP.ELECTRICA,13,-3.6563034087047765,40.375577480120825
3809,PADRE LLANOS-ESTEBAN CARROS,13,-3.6548551819914574,40.37686498678886
1532,CRISTOBAL BORDIU-STA.ENGRACIA,7,-3.7020952852570757,40.4451106049649
1533,CRISTOBAL BORDIU-ALENZA,7,-3.6995824586740356,40.444999716848905
1534,CRISTOBAL BORDIU-ALONSO CANO,7,-3.6963617063279424,40.444847996709825
1537,Pº DELICIAS-PZA.LEGAZPI,2,-3.69365707646334,40.39394516679187
1541,AVDA. VALLADOLID,9,-3.7263178169032836,40.428861829297404
1543,AVDA. VALLADOLID,9,-3.73098292761002,40.433994582675936
1545,MARTIN FIERRO-OBISPO TREJO,9,-3.730083360032646,40.43802729279416
1547,AV.JUAN HERRERA-PZA.C.CISNEROS,9,-3.7258520614082893,40.441459345097094
1550,AV.JUAN HERRERA-PZA.C.CISNEROS,9,-3.725924645784393,40.44163006014323
3351,CONCEJAL FCO.J.MARTIN-GOTARRENDURA,10,-3.734722125676882,40.40382666667006
1554,AVDA. VALLADOLID,9,-3.730801212877192,40.43354528146459
1555,AV.VALLADOLID-BRIGADA TRAFICO,9,-3.7284488177916444,40.43078535646197
1434,BRAVO MURILLO-LOPE DE HARO,6,-3.700419858645733,40.458643261807325
1435,BRAVO MURILLO-FRANCISCO MEDRANO,6,-3.6985788801482484,40.46081655939758
1441,SINESIO DELGADO-HOSPITAL CARLOS III,8,-3.6904494000475863,40.47664912290626
1442,SINESIO DELGADO-FINISTERRE,8,-3.6980398070510354,40.47709901186929
1445,MELCHOR FDEZ.ALMAGRO-AV.FERROL,8,-3.705613035062001,40.47815210632755
1446,MELCHOR FDEZ.ALMAGRO-AV.BETANZOS,8,-3.7089091610792226,40.477465269768324
1448,CTRA.VILLAVERDE A VALLECAS-UNANIMIDAD,17,-3.683319522442145,40.359754100680014
1449,MONFORTE DE LEMOS Nº 163,8,-3.7132311065003756,40.47896118553136
1450,AV.BETANZOS-LA BAÑEZA,8,-3.710297648477087,40.478240521350834
3664,EMBAJADORES-DEPURADORA LA CHINA,13,-3.678706264695949,40.371826474603125
3141,AV. PLANETARIO-MENESES,2,-3.6813597653855314,40.395522815914475
3009,LA MASO-SALOU,8,-3.712908885671335,40.488647779004246
3663,EMBAJADORES-DEPURADORA LA CHINA,13,-3.6784719610805445,40.37195397741999
3014,MONFORTE DE LEMOS-PARQUE BOMBEROS,8,-3.699091227845925,40.48178631641101
3018,SAN MODESTO-HOSPITAL RAMON Y CAJAL,8,-3.691709377914218,40.48791177612908
3019,HOSPITAL RAMON Y CAJAL,8,-3.6922704491608855,40.489692184790115
3020,ANTONIO ROBLES-HOSPITAL RAMON Y CAJAL,8,-3.691877427895627,40.48819004696463
247,Pº CHOPERA-PZA.GRAL.MAROTO,2,-3.696875224899123,40.39522311958085
3025,CARAMUEL-ANTILLON,10,-3.7257647217239436,40.41250490872009
3026,CARAMUEL-DOÑA MENCIA,10,-3.7270842531816917,40.411361477267505
3028,SEPULVEDA-GOTARRENDURA,10,-3.7355105369119834,40.40588472531589
5840,GUILLERMO DE OSMA-PZA.GRAL.MAROTO,2,-3.6960562975530085,40.395795625039796
5832,GUILLERMO DE OSMA-PZA.GRAL.MAROTO,2,-3.6962068723286716,40.395542464204446
3035,SEPULVEDA-CONC.FCO.J.JIMENEZ M.,10,-3.753362076820216,40.40246344517053
3042,AV.RAFAEL FINAT-GRAL.SALIQUET,10,-3.771514446056499,40.37703727204901
3043,GRAL.ROMERO BASART-GRAL.FANJUL,10,-3.773981803651305,40.38367848669083
3047,Cº DE LAS CRUCES-MASCARAQUE,11,-3.7545177731870054,40.37614943281643
3048,Cº DE LAS CRUCES-JOSE JORDAN,11,-3.7563572927629996,40.37420946875824
3049,BALTASAR SANTOS,13,-3.6584267172777127,40.40490803195608
3329,VALDEBERNARDO-HACIENDA PAVONES,14,-3.630759903836316,40.40156678325546
3331,FUENTELVIEJO-FUENSAVIÑAN,20,-3.569244220518042,40.45032781541248
3338,NANCLARES DE OCA-ARCAUTE,20,-3.57873511625113,40.445929315799425
3341,AV.SEGUNDA-CALLE DIEZ,20,-3.5928650646368223,40.447614453804015
2982,NURIA-PEÑA SIRIO,8,-3.7038774966505104,40.49383823701662
2984,CERRO DEL CASTAÑAR-LA MASO,8,-3.7118776724132996,40.493789223494076
2990,MONFORTE DE LEMOS-PARQUE BOMBEROS,8,-3.6991761481525667,40.482011026153955
2994,LA MASO-AV.CARDENAL HERRERA ORIA,8,-3.7127008312648706,40.485712151382145
2995,LA MASO-SALOU,8,-3.712672624684832,40.48862220969209
2996,LA MASO-HOSPITAL RUBER INTERNACIONAL,8,-3.7125100511222437,40.49110066688725
2999,LA MASO-MARBELLA,8,-3.7059990007513686,40.49696940627342
3003,COSTA BRAVA-LA MASO,8,-3.703199066220121,40.49893240696589
2946,Cº HORMIGUERAS-TORRE DE DON MIGUEL,18,-3.6437989939168407,40.37617932425611
2875,STO.A.DE LA GUARDA-GRAL.HIERRO MTNEZ.,9,-3.711068032088164,40.46180344617601
2877,AV.PABLO IGLESIAS-ALEJANDRO RGUEZ.,6,-3.710480296199442,40.45863590293192
2879,Cº DEL CHORRILLO,6,-3.71019831533542,40.46993487932771
2880,CNO. DEL CHORRILLO,6,-3.710100155133086,40.469575124265496
2885,AV.BURGOS Nº 30,5,-3.674097178549295,40.48126816845378
2886,AV.SAN LUIS-AV.BURGOS,5,-3.67348379502376,40.48246092658351
2888,AV.SAN LUIS-SERRANO GALVACHE,15,-3.669488142931068,40.47930398616592
2894,ARTURO SORIA Nº 329,15,-3.6658014816544866,40.48230725114491
2897,AV.SAN LUIS-SERRANO GALVACHE,15,-3.6693136007642955,40.479548239092516
1774,CONDE DE PEÑALVER-DIEGO DE LEON,4,-3.6736688870441996,40.43605456755906
1776,DR.ESQUERDO-AV.NAZARET,3,-3.6685936466487057,40.41289476969806
1777,DR.ESQUERDO-PZA.CONDE CASAL,3,-3.668921616346219,40.40911807589919
1779,DR.ESQUERDO-CAVANILLES,3,-3.6707516145304018,40.40588222626458
1782,SIERRA DEL CADI-AV.ALBUFERA,13,-3.6588510488504853,40.39524788015592
1784,CARLOS MARTIN ALVAREZ-JAVIER MIGUEL,13,-3.6626184816925202,40.39131640244815
1787,AV.PQUE.PALOMERAS BAJAS-ROMEO Y JULIETA,13,-3.6598888440076616,40.38206165105331
1790,AV.PABLO NERUDA-VILLALOBOS,13,-3.649971402716834,40.383505235101325
3106,AVDA.MEDITERRANEO-MORATALAZ,13,-3.6481599987396183,40.402236303146545
3107,AV.MEDITERRANEO-PIO FELIPE,13,-3.6454500522168236,40.39981901362305
3108,AV.MEDITERRANEO-AV.DEMOCRACIA,14,-3.63960491733352,40.397301929931096
3116,LOPEZ ARANDA-GRAL.ARANAZ,15,-3.637468369558669,40.44435000451553
3117,A.LOPEZ CASERO-PZA.JOSE BANUS,15,-3.65448506155563,40.435957584596174
3122,SAN BERNARDO-MINISTERIO JUSTICIA,1,-3.7059060636260157,40.42726756937466
3123,SAN BERNARDO-DAOIZ,1,-3.704855175925553,40.42936407596389
3133,SAN BERNARDO-DAOIZ,1,-3.705076897162668,40.429146507126205
3732,PEÑA CERVERA-FUENTIDUEÑA,18,-3.6192263757809626,40.372349526726765
2075,HACIENDA PAVONES-FTE.CARRANTONA,14,-3.635004317098921,40.403039053845035
2076,HACIENDA PAVONES-MERCADO,14,-3.638021056651712,40.40427470516532
2077,HACIENDA PAVONES-PZA.C.MACEDA Y TABOADA,14,-3.641243354955344,40.40480642912187
2080,CNO. VINATEROS- ARROYO BELINCOSO,14,-3.648711178707578,40.4117738192408
2081,ARROYO BELINCOSO-Cº VINATEROS,14,-3.6507943623220034,40.41269004317468
2082,DR.GARCIA TAPIA-ARROYO MEDIA LEGUA,14,-3.652294664842232,40.414267181459344
2084,FELIX RGUEZ.DE LA FUENTE Nº 12,14,-3.6562088700997557,40.416803599206204
2087,MAR CASPIO-LIBERACION,16,-3.641651994524759,40.47507454683027
2090,ZAPATOCA-AV.BUCARAMANGA,16,-3.6319835109813474,40.474371076764534
2091,ZIPAQUIRA-LURUACO,16,-3.6335134673475196,40.47523656928217
2097,CTRA.CANILLAS-GTA. PILAR MIRO,16,-3.6562633988066287,40.464839374707616
2098,CTRA.CANILLAS-CARRIL DEL CONDE,16,-3.6520463745721536,40.465430812137384
2099,CTRA.CANILLAS-MATAPOZUELOS,16,-3.6498115050303346,40.46485781700007
2107,CTRA.CANILLAS-TORQUEMADA,16,-3.6389238076230375,40.46728789051388
1977,FERMIN CABALLERO Nº 14,8,-3.6992432840976077,40.488479036619026
1978,FERMIN CABALLERO-PATONES,8,-3.70245090872923,40.48717130337145
1979,FERMIN CABALLERO-GINZO DE LIMIA,8,-3.7058948455611342,40.48590708232863
1982,FERMIN CABALLERO-AV.BETANZOS,8,-3.7128555934140426,40.483612115166224
1987,ROSALIA DE CASTRO Nº 75,8,-3.7310583796126258,40.48664249887937
1992,ROSALIA DE CASTRO-G.MISTRAL,8,-3.7321135735286792,40.48602321104253
2211,DOMINGO PARRAGA-AV.REAL DE PINTO,17,-3.705873893649513,40.34407784534664
2212,SAN NORBERTO-SAN ERASMO,17,-3.70486949037669,40.341471317218435
2214,RESINA-TRANSVERSAL SEXTA,17,-3.6991688609001936,40.33784820492849
2215,RESINA-AV.ANDALUCIA,17,-3.692588776523672,40.337959874177606
2217,AV.ANDALUCIA-ESCUELA DE LOGISTICA,17,-3.690958745916376,40.33743808426444
2219,AV.ANDALUCIA-ROCAFORT,17,-3.6911680628077566,40.342950441064445
2220,HUMERA Nº 50,9,-3.7809412455605402,40.45168578029624
2222,PAQUETE EXPRES-EST.CHAMARTIN,5,-3.676439172958306,40.475984243835946
2223,CORREOS-EST.CHAMARTIN,5,-3.6759927930748644,40.47852738170657
2227,AV.POBLADOS-DR.TOLOSA LATOUR,12,-3.7018736270112274,40.372751232369346
2229,HOSPITAL 12 DE OCTUBRE-GTA.MALAGA,12,-3.6942866240858567,40.37722952206974
2231,AV.POBLADOS-AV.ORCASUR,12,-3.698083444772154,40.37301742475334
2241,SAN MARTIN DE PORRES-ARTESA DE SEGRE,9,-3.726286875981732,40.470888929086854
3847,AV.LOGROÑO-LOS BREZOS,21,-3.587855172713582,40.46406347794323
3855,SEVILLA,1,-3.698806849100566,40.41906744336165
3767,CTRA.HUMERA A ARAVACA-PINILLA,9,-3.778521704509287,40.4586660286614
3782,AV.ROSALES-SILVINA,12,-3.688508967561359,40.36859730616796
3786,RIBERA DEL LOIRA Nº16,21,-3.623116662696562,40.468482313349135
3794,MERCAMADRID-ZONA COMERCIAL Y PESCADO,18,-3.660566106744879,40.36214762168857
3688,PEDRO BOSCH-MENDEZ ALVARO,2,-3.6776718356836806,40.397895863236904
3692,GOLONDRINA-BRUJULA,9,-3.7837520357296364,40.45710816275249
3705,FRENTE N.20,12,-3.7143007310610914,40.37832383160592
3649,TAMPICO-TOBAGO,20,-3.634382689401752,40.44725887759463
3620,Pº DE GINEBRA-NIZA,20,-3.604447845557475,40.42685168414677
3623,SOFIA-BUDAPEST,20,-3.5996611447010176,40.42945320685916
3631,ALBERIQUE-HELLIN,20,-3.616265613830309,40.43132082887743
3635,SAN ROMUALDO-ALBASANZ,20,-3.62052438773648,40.44059536777971
3639,GANDHI-BARLOVENTO,15,-3.6297863250268176,40.42732901240396
3647,AV.CANILLEJAS-NECTAR,20,-3.613916690434883,40.44267570565557
5424,CTRA.FUENCARRAL A ALCOBENDAS,8,-3.6747288677600447,40.51605694448164
2433,CTRA. HUMERA A POZUELO,1,-3.7869877882499283,40.430176372936586
2435,CANDILEJAS-AV.PABLO NERUDA,13,-3.6625445727926795,40.383776210560036
2439,AV.PADRE PIQUER-CAMPAMENTO,10,-3.766964026108069,40.39647307652019
2440,AV.PADRE PIQUER Nº 56,10,-3.765785598884255,40.39334573769411
2444,PARQUE DE LA PALOMA-HENO,12,-3.7129904520812556,40.3803049113398
2447,AVDA. PADRE HUIDOBRO,9,-3.7678864880392484,40.46412453774591
2448,CTRA.HUMERA A ARAVACA-FUENTE DEL REY,9,-3.777678142476467,40.4601762032001
2456,FTE.CARRANTONA-LUIS HOYOS SAINZ,14,-3.6330102740614847,40.40529325160039
2321,ARROYO POZUELO-GTA.RIO ZANCARA,9,-3.7771761591251303,40.454485920807734
2322,CTRA. CASTILLA-FUENTE DEL REY,9,-3.7662310043790703,40.45753196370573
2327,Cº ZARZUELA-CEMENTERIO ARAVACA,9,-3.78532387130022,40.467511831683794
2332,LASARTE-ZUMARRAGA,9,-3.8123434993394025,40.47300968336519
2335,AVDA. CASAQUEMADA,9,-3.8350531807658994,40.477847750394574
2337,GUECHO,9,-3.821640328671996,40.47696192922208
2338,GUECHO-IBAIONDO,9,-3.814371634170883,40.47488728056157
2344,Pº. ZARZUELA,9,-3.7852624833346913,40.46730504331054
2345,Pº. ZARZUELA,9,-3.7833533620277753,40.46644413355066
2349,J.JOSE MTNEZ.SECO-DIAMANTE,17,-3.685423768256199,40.35356137659502
2351,VICENTE CARBALLAL-POTASA,17,-3.680188483861845,40.355231955370215
2246,CANTALEJO-ARROYOFRESNO,8,-3.739886627469768,40.47719900176695
2250,A.RGUEZ.CASTELAO-GABRIELA MISTRAL,8,-3.7343099406243305,40.48401830122422
2252,GABRIELA MISTRAL-L.ALAS CLARIN,8,-3.7355124351481566,40.48284850140496
2109,CTRA.CANILLAS-MATAPOZUELOS,16,-3.6498133286246635,40.465046995384824
2111,CTRA.CANILLAS-GTA PILAR MIRÓ,16,-3.6560426305025335,40.465182969516945
2115,EVARISTO SAN MIGUEL-MARTIN DE LOS HEROS,9,-3.71431095578117,40.428333051421816
2118,AV.TOREROS-RAFAELA BONILLA,4,-3.665410233823502,40.434309613810036
2125,PZA.BEATA MARIA ANA DE JESUS,2,-3.6927119847866408,40.39600490345608
2126,EDUARDO BARREIROS-AV.POBLADOS,12,-3.694785620727391,40.37305530751632
2129,EDUARDO BARREIROS-CENTRO DE SALUD,12,-3.6970208983178017,40.367068810260314
2130,EDUARDO BARREIROS-M40,17,-3.6998888886261474,40.361943312738134
2131,EDUARDO BARREIROS-PEUGEOT,17,-3.7005343666174477,40.36172318480174
2133,AV.EDUARDO BARREIROS-JOSE PEREZ,17,-3.703829419312499,40.35581120323633
2134,VILLALONSO-OLAS,17,-3.708693894852448,40.35139404180058
2136,PEDRO LABORDE,13,-3.651327426331488,40.38607420786637
2137,VILLALONSO-PUEBLA SANABRIA,17,-3.7116220322769093,40.35101569315953
2138,VILLALONSO-OLAS,17,-3.709056177071974,40.35113055581
2141,EDUARDO BARREIROS-ENTRADA PPAL.PEUGEOT,17,-3.702363465246089,40.358667003106945
2142,EDUARDO BARREIROS-PEUGEOT,17,-3.700590358042748,40.361443562622796
2144,SALVADOR MARTINEZ-EDUARDO BARREIROS,12,-3.6959227895670455,40.369093467408355
2145,AVDA. EDUARDO BARREIROS,12,-3.6948160093677616,40.370280318023234
2150,ALCALA-SAN ROMUALDO,20,-3.622626546646253,40.44351199540912
5460,"CALLE DE VALMOJADO, S/N",10,-3.7580623858887536,40.388657871495376
3450,BRAILLE-MOLINS DE REY,8,-3.6918109791565046,40.49780297020052
3456,PZA.DE LOS TRES OLIVOS,8,-3.6891790349132068,40.50238622034312
3457,ALDONZA LORENZO-CAMPO DE MONTIEL,8,-3.6886632954423844,40.50042535206921
3460,TIMON-GRAN PODER,21,-3.5843153219953003,40.47480213371832
3461,PZA.NTRA.SRA.DE LORETO,21,-3.5844492246113564,40.47391857590137
1993,ROSALIA DE CASTRO Nº75,8,-3.730285919766404,40.486133874832
1994,RAMON GOMEZ SERNA-A.CASONA,8,-3.727724647235372,40.484960855792
2546,AV.GUADALAJARA-ALBERICIA,20,-3.6115794459563917,40.424183524889415
2551,TRESPADERNE-BARBADILLO,21,-3.5797511734346337,40.453014326434
2560,Pº ALAMEDA DE OSUNA Nº 80,21,-3.586334047833387,40.46140454103051
2561,LOS BREZOS-ANTONIO SANCHA,21,-3.5867371362991056,40.46299708885078
2563,AV.LOGROÑO-MARQUES DE BERNA,21,-3.584113099967085,40.466442811714444
2566,AVDA. LOGROÑO-ALGEMESI,21,-3.58026380151107,40.47420993922541
2569,CICLON-ALISIOS,21,-3.5926510132607103,40.47424616934768
2570,MISTRAL-GTA.DE LOS VIENTOS,21,-3.595257386001974,40.475494029713104
2574,AV.LOGROÑO-ALGEMESI,21,-3.580547151122431,40.47423554294236
2577,AV.LOGROÑO-ARIADNA,21,-3.580235102433524,40.4708767570967
2579,AV.LOGROÑO-BENIFAYO,21,-3.5870116777507968,40.46472542286498
2582,Pº ALAMEDA OSUNA-RAMBLAS,21,-3.5938935301973984,40.45727584891203
2584,FTE.CARRANTONA-AV.DAROCA,15,-3.625116362945659,40.41824620931366
2587,AV.DAROCA-MATEO GARCIA,15,-3.6514209875052863,40.431218126752306
2588,AV.DAROCA-SANTA PRISCA,15,-3.6466411093256554,40.42945216926661
2591,FCO.LARGO CABALLERO-ARRIAGA,15,-3.6372270920415377,40.42504497717793
2528,JOSEFA VALCARCEL-ARTURO SORIA,15,-3.647978624331618,40.44965191616998
2458,CASALARREINA-GALLO,19,-3.6152168647809546,40.408092044222954
2459,AV.DAROCA-CASALARREINA,19,-3.613508950877733,40.40949752882098
5425,NTRA.SRA.VALVERDE-ALONSO QUIJANO,8,-3.684202425006504,40.50624458637348
3243,SILVANO-EL ALGABEÑO,16,-3.6363036079892184,40.46462667946998
3244,SILVANO-ALCORISA,16,-3.63878111349307,40.46343283367777
3247,MOSCATELAR-PARMA,16,-3.647810403150437,40.45914834489987
3248,ULISES-ASURA,16,-3.6522440656439406,40.45904232519042
3249,ULISES-ARTURO SORIA,15,-3.6544755154601285,40.45806574715886
3255,CAMPO NACIONES-GTA.J.DE BORBON,21,-3.6145755594727,40.46322175831852
3257,AV.MACHUPICHU-FLORENCIO CASTILLO,16,-3.6261547614162972,40.46156500518272
3258,AV.MACHUPICHU-AV.PAPA NEGRO,16,-3.623433474831581,40.45937251388053
3259,AV.MACHUPICHU-FLORENCIO CASTILLO,16,-3.626145142514206,40.4617992911583
3263,AV.PABLO NERUDA-TRISTANA,13,-3.652315729675978,40.38349203142233
3264,AV.PABLO NERUDA-CENICIENTA,13,-3.6551522181431695,40.383205719039076
3266,ASCAO-LUIS RUIZ,15,-3.636915786172966,40.43328095715488
3270,FCO.VILLAESPESA-HNOS.GOMEZ,15,-3.6473840105844686,40.430700266786644
3143,AV.PLANETARIO-PARQUE E.TIERNO GALVAN,2,-3.68119735216629,40.39577602730082
3145,AV.PLANETARIO-BRONCE,2,-3.686085879933018,40.39098131364616
3147,GRAN VIA HORTALEZA-GTA.SANDRO PERTINI,16,-3.6423584250079286,40.47121478179988
3151,FUENCARRAL-GTA.QUEVEDO,7,-3.702591563349269,40.435017502905545
3153,GRAL.PERON-ORENSE,6,-3.6940284791063194,40.45416832189008
3155,CAPITAN HAYA-GRAL.YAGUE,6,-3.6907246376544687,40.458611526727296
3157,CAPITAN HAYA-ROSARIO PINO,6,-3.6901524164905086,40.46377708913833
3159,ROSARIO PINO-CAPITAN HAYA,6,-3.6912179814960333,40.46416711524459
3160,ORENSE-SOR ANGELA CRUZ,6,-3.6929757113311292,40.46189533591308
3161,AV.AVIACION-Pº EXTREMADURA,10,-3.7868467566167006,40.383672727236444
1807,ENRIQUE Gª ALVAREZ-M.MONTJUICH,18,-3.6122224686866833,40.38198154854021
1810,AV.STA.EUGENIA Nº 13,18,-3.6089134237555074,40.3873684587993
1811,AV.STA.EUGENIA-VIRGEN DE LAS VIÑAS,18,-3.6028770726826496,40.384273931205904
1812,FUENTESPINA-AV.STA.EUGENIA,18,-3.6063130703169395,40.38118385159945
1813,AV.STA.EUGENIA-VIRGEN DE LAS VIÑAS,18,-3.6079504884071874,40.38248157553272
1817,ENRIQUE Gª ALVAREZ-M.MONTJUICH,18,-3.612350910352335,40.38185474060004
1820,PZA.SIERRA DE GADOR,18,-3.6205028962862738,40.381811275084786
1822,CONGOSTO-LA REVOLTOSA,18,-3.6189205865846232,40.37754943235994
1825,MONTES DE BARBANZA-SIERRA EJE,18,-3.6175873281223363,40.37989893455062
1831,MARIA DROC-SAN DALMACIO,17,-3.691885995652134,40.346378636098954
1834,ROCAFORT-MONCADA,17,-3.6906708134946884,40.3438363095345
1772,Pº STA.Mª CABEZA-MARIBLANCA,12,-3.706294892787537,40.39343621095823
1488,AV.RAMON Y CAJAL-MOSTOLES,5,-3.6675075129194057,40.454432656504416
1490,AV.RAMON Y CAJAL-V.DE LA SERNA,5,-3.6725474938974436,40.45366469844141
1493,CONCHA ESPINA-ESTADIO SANTIAGO BERNABEU,5,-3.6877292985147854,40.45402579964614
1494,AVDA.GRAL.PERON-CAPITAN HAYA,6,-3.6917535832788877,40.45429006903286
1378,PZA.DE CUZCO,5,-3.6879033455728534,40.46068240247407
1380,ALBERTO ALCOCER-Pº DE LA HABANA,5,-3.6810004372638963,40.46038094553675
1381,ALBERTO ALCOCER-BOLIVIA,5,-3.6766844151010423,40.46046035270777
1385,SAN NAZARIO Nº 1,5,-3.6660256326065657,40.45007184239731
1387,AV.ALFONSO XIII-PRADILLO,5,-3.6659228699064266,40.4528021612756
1389,AV.ALFONSO XIII-AV.ALHELIES,5,-3.6653860081980265,40.45695839970445
1390,AV.ALFONSO XIII-AV.ASTER,5,-3.66552946000098,40.45954315339916
2625,Cº VIEJO LEGANES-AV.OPORTO,11,-3.726513104212949,40.38784241219529
2626,Cº VIEJO LEGANES-PELICANO,11,-3.7276941209926155,40.38591605054574
2628,Cº VIEJO LEGANES-WENCESLAO,11,-3.7301344178810956,40.38278352225353
2630,Cº VIEJO LEGANES-AV.ABRANTES,11,-3.732752616675052,40.37869485046234
2631,MARIA ODIAGA-PADRE AMIGO,11,-3.7387895844783907,40.381350148507664
2632,MARIA ODIAGA-WITERICO,11,-3.740771709048277,40.380544666099034
2636,AGUACATE-SECOYA,11,-3.742910107462678,40.37144978126811
2637,GANDHI-LUIS RUIZ,15,-3.632733938798195,40.42611471066109
2638,GANDHI-SAN TELESFORO,15,-3.6352668344621257,40.425938654335255
2639,FERNANDO GABRIEL-ARRIAGA,15,-3.6377845665964816,40.426654521764654
2642,EZEQUIEL SOLANA-GONZALO DE BERCEO,15,-3.6406490087918923,40.429116167110465
2644,EMILIO FERRARI-VITAL AZA,15,-3.6405567932151888,40.43430588338428
2646,JULIAN CAMARILLO-HNOS.Gª NOBLEJAS,20,-3.632193465766352,40.4351176998523
2648,JULIAN CAMARILLO-SANTA LEONOR,20,-3.6275239717131007,40.436323330484164
2656,AV. ARCENTALES-AV.NIZA,20,-3.608073256870435,40.436706581872606
2657,SUECIA-MARIA SEVILLA DIAGO,20,-3.6043210985505727,40.433762287421466
2660,AV.CANILLEJAS A VICALVARO-HINOJAL,20,-3.610002287297443,40.43358829791027
2664,JULIAN CAMARILLO-MIGUEL YUSTE,20,-3.622505511330882,40.438062185597865
2668,ALCALA-HERMANOS DE PABLO,15,-3.642599462950036,40.437096352832256
2600,AV. DAROCA-CASALARREINA,19,-3.6134047661946256,40.409705290535776
2531,AQUITANIA-REPUBLICA ESLOVACA,20,-3.6144542164325957,40.42142051550475
2533,SUECIA-RUMANIA,20,-3.6075678887687115,40.42379026462639
2534,SERENA-BARROS,13,-3.667208252568504,40.37883041760915
2538,SAN MODESTO - ISIDRO FERNANDEZ,8,-3.6840680291252306,40.486047373003125
2540,VIRGEN ARANZAZU-ANGEL MUGICA,8,-3.688237787165632,40.48881538215405
2541,VIRGEN DE ARANZAZU Nº7,8,-3.688698503515001,40.48771354688067
2542,SUECIA-FRANCFORT,20,-3.605135674880819,40.4246769026032
2818,BELZUNEGUI-AV.POBLADOS,11,-3.7374485852497257,40.37613343843535
2820,AV.POBLADOS-PARTERRE,11,-3.7492552499896536,40.378553045908674
2828,ILLESCAS-ESCALONA,10,-3.7631857256498282,40.397885475302644
2830,UNANIMIDAD-ALIANZA,17,-3.6838884281340825,40.360111102621474
2831,CTRA.VILLAVERDE A VALLECAS-COALICION,17,-3.6872425127135555,40.35639747003522
2833,AV.OROVILLA-UNANIMIDAD,17,-3.688275883492759,40.364211250834074
2834,GTA.CUATRO CAMINOS,6,-3.7020182488331783,40.44903899469193
2841,AV.C.HERRERA ORIA-VENTISQUERO CONDESA,8,-3.714635594100685,40.484574084979506
2842,AV.C.HERRERA ORIA-GINZO DE LIMIA,8,-3.706579740133125,40.48820918274861
2843,ALFREDO MARQUERIE-VALENCIA DE D.JUAN,8,-3.7001116159308443,40.489149448344534
2847,CARDEÑOSA-LAGARTERA,13,-3.6714174695164887,40.3839412398367
2850,LLANO CASTELLANO-ISLA DE JAVA,8,-3.6844630114624324,40.49240534222215
2851,LLANO CASTELLANO-ISLA DE JAVA,8,-3.6846749441992226,40.49235904191084
2855,FERMIN CABALLERO-ISLA DE AROSA,8,-3.715107970192544,40.482391000288175
2858,STO.ANGEL DE LA GUARDA-ARCINIEGA,9,-3.712140736635944,40.46509412249173
2864,FERMIN CABALLERO-ISLA DE TABARCA,8,-3.7204612990178925,40.479889297268784
2869,ANTONIO MACHADO-VALDERRODRIGO,9,-3.7182539733208406,40.47203822956066
2189,GRAENA-AV.ORCASUR,12,-3.698198408600017,40.37160230011207
2196,RAFAELA YBARRA-CESTONA,12,-3.710822958622426,40.37471459816222
2197,CRISTO VICTORIA-JASPE,12,-3.7043990486754814,40.38111433906308
2199,CRISTO VICTORIA-SANTUARIO,12,-3.6984817900053315,40.384213331975
2201,RESINA-AV.ANDALUCIA,17,-3.6919898512311704,40.33810760630263
2204,SAN CESAREO-SAN ERASMO,17,-3.704532588240189,40.33964451119284
2205,SAN ERASMO-SAN NORBERTO,17,-3.705100730599516,40.34106449542964
2206,DOMINGO PARRAGA,17,-3.706157304353866,40.34415719737988
2209,ASTILLEROS-ESCRIBANOS,17,-3.712716970667505,40.344288127764834
2210,DOMINGO PARRAGA-ALBERTO PALACIOS,17,-3.7110523563929734,40.34386593616029
3132,CARRANZA-GTA.RUIZ JIMENEZ,7,-3.703639650500316,40.431506619892545
2518,MENDEZ ALVARO-AV.PLANETARIO,2,-3.677516891317537,40.39654540955475
2519,PTO.BONAIGUA-MTNEZ.DE LA RIVA,13,-3.662997061893589,40.38907096744143
2521,IMAGEN,13,-3.665399126919063,40.38652561060033
2523,LA MANCHA-AV.ENTREVIAS,13,-3.6676310126644895,40.38346766715812
2525,LA MANCHA-AV.ENTREVIAS,13,-3.6674651963596068,40.383378533556204
2527,VIZCONDE DE ARLESSON,13,-3.6642541536762923,40.38630696740825
2391,EMBAJADORES-STA.CATALINA,13,-3.673196705545722,40.36976856932246
2392,CENTRO DE TRANSPORTES DE MADRID,18,-3.6530920340313724,40.367505469933384
2394,MERCAMADRID-MERCADO PESCADO,18,-3.6641461060439564,40.35971266447563
2398,EMBAJADORES-BRONCE,2,-3.689382494016023,40.3895833122796
2405,JULIAN CAMARILLO-RUFINO GONZALEZ,20,-3.62373864392539,40.4375330133422
2406,JULIAN CAMARILLO-RUFINO GONZALEZ,20,-3.6243630984743365,40.43748459644568
2411,CAMPUS POLITECNICO DE VALLECAS,13,-3.6284321810431486,40.392029821195045
2415,RAMIRO DE MAEZTU-AV.MORERAS,9,-3.719382845234612,40.45069797250485
2416,RAMIRO DE MAEZTU-ESCUELA DE MONTES,9,-3.722970645121125,40.44985576650501
2417,FACULTAD DE BIOLOGICAS,9,-3.724898830093431,40.450411254260224
2418,PROFESOR ARANGUREN-ESC.CAMINOS,9,-3.7301409159288625,40.44988276110528
2421,PROFESOR ARANGUREN-ESC.CAMINOS,9,-3.730068701762875,40.44974808258356
2422,PARANINFO-AV.COMPLUTENSE,9,-3.727748029093296,40.44997893473636
2423,FACULTAD DE BIOLOGICAS,9,-3.7250270898832443,40.45027531495676
2424,AV.GREGORIO DEL AMO-M.BARTOLOME,9,-3.7203639646138367,40.44760177903165
2428,Pº RUPERTO CHAPI-AV.SENECA,9,-3.7329191845174456,40.43641475162703
2429,CTRA.HUMERA A POZUELO (HUMERA),2,-3.7872134474934116,40.43031898012989
2431,CAMPUS SOMOSAGUAS-APARCAMIENTO,2,-3.7905563900934447,40.43389975929161
3083,RAMON PEREZ DE AYALA,13,-3.648801014393929,40.401493962619355
3084,MARISMAS-RAMON PEREZ AYALA,13,-3.651967075971761,40.403530219714966
3085,MARISMAS-MARUJA GARCIA ROMERO,13,-3.6537027981876204,40.40509700550616
3087,SIERRA TOLEDANA-BALTASAR SANTOS,13,-3.658901700132815,40.40406748171575
3090,CAMINO DE PERALES Nº 48,12,-3.6897069762957164,40.38096868318037
3091,FUENTE CARRANTONA-ENCOMIENDA DE PALACIOS,14,-3.6364651659169267,40.4004904581468
3093,AV.PABLO NERUDA-AV.ALBUFERA,13,-3.641958749600225,40.39203658110592
3094,AV.PABLO NERUDA-AV.ALBUFERA,13,-3.6416156163573503,40.39188533135707
3096,FTE.CARRANTONA-HACIENDA PAVONES,14,-3.6348347702017048,40.40255349459254
3097,PIO FELIPE-JADRAQUE,13,-3.648175156877736,40.398902857572025
3099,PIO FELIPE-JADRAQUE,13,-3.648090859748583,40.398714139401186
3100,RAFAEL ALBERTI-AV.ALBUFERA,13,-3.6393508698397437,40.389132084696485
3103,AVDA. CARDENAL HERRERA ORIA,8,-3.7101582040112224,40.48627735127362
3105,RAFAEL ALBERTI-EXTREMEÑOS,13,-3.64084831177744,40.38676340828193
1966,MAURICIO LEGENDRE-FCO.PALAU Y QUER,5,-3.6836470864937523,40.47595984237041
3361,VALMOJADO-SESEÑA,10,-3.7551799791673806,40.39957769727303
3362,SEPULVEDA-CONC.FCO.J.JIMENEZ M.,10,-3.753034144564384,40.402645762749856
3364,SEPULVEDA-PRADALES,10,-3.7467173184874043,40.40581287762237
3366,SEPULVEDA-HUERTA CASTAÑEDA,10,-3.7405831829743263,40.406347836201455
3368,SEPULVEDA-GOTARRENDURA,10,-3.7355317513364588,40.40566837318821
3369,SEPULVEDA-MARIA DEL CARMEN,10,-3.7310686715906307,40.407075069112615
3372,CARAMUEL-ANTONIO ZAMORA,10,-3.7255329273992825,40.41506493080898
3373,AV.RAFAEL FINAT-GRAL.R.BASART,10,-3.770379205854554,40.37975657443055
3377,SAINZ DE BARANDA-MAIQUEZ,3,-3.6714902327646843,40.41853566439291
3379,INTERCAMBIADOR DE ALUCHE,10,-3.7593984553254174,40.388027477482325
3380,CTRA.BOADILLA MONTE-SEDANO,10,-3.774052140925717,40.401137565081115
3382,EL TOBOSO-ZAIDA,11,-3.734308992252804,40.39509050555877
3385,PZA.ACHICORIA,10,-3.7437048941868993,40.40408454231566
3386,LOS YEBENES-CAMARENA,10,-3.7522459900461507,40.397479698885924
3387,LOS YEBENES Nº 82,10,-3.750760312117979,40.395273128701184
3396,LOS YEBENES Nº 161,10,-3.7502703354119795,40.39465468453903
3400,AV.OROVILLA-GENEROSIDAD,17,-3.688137679181778,40.362203037819896
1579,GUAYABA-AGUACATE-CENTRO DE SALUD,11,-3.746174953441784,40.37377112199854
1583,ALISEDA-ALBARES DE LA RIBERA,11,-3.740815316231106,40.37592272435933
1584,ALBARES DE LA RIBERA-BELZUNEGUI,11,-3.7377470905858634,40.376500906868465
1586,CARCASTILLO Nº 29,11,-3.7366827440756163,40.37936357507836
1589,AV.ABRANTES-PZA.MENINAS,11,-3.7307820333329555,40.379482104627705
1591,AV.ABRANTES-PELICANO,11,-3.7241465716909454,40.38469507208053
1593,GRAL.RICARDOS-ALONDRA,11,-3.7331674126835956,40.38870131145767
1598,MARCELO USERA-FERROVIARIOS,12,-3.7039967956880853,40.387738470839
1600,MARCELO USERA-ALMENDRALES,12,-3.6992051798341627,40.389227021673044
1603,PELICANO-Cº VIEJO LEGANES,11,-3.7275493584422312,40.38560164379651
1604,PZA.TARIFA,11,-3.729016189814945,40.38615096663392
1605,CLARA CAMPOAMOR-ALVAREZ AVELLAN,11,-3.73219283575002,40.386833599956134
1610,SILVANO-HAENDEL,16,-3.624293963191143,40.464412905544044
1612,MARTINEZ IZQUIERDO-PILAR ZARAGOZA,4,-3.667498883945237,40.435684959881804
1613,MARTINEZ IZQUIERDO-VILLAFRANCA,4,-3.664375442886664,40.43698223771167
1614,MARTINEZ IZQUIERDO-ALBERTO MARTIN,4,-3.6609924643409233,40.437073706821614
2682,STA.IRENE-JOSE LUIS ARRESE,15,-3.6515705861951333,40.42228932360771
5963,SANTA MARTA-ALFONSO XIII,13,-3.6606500431069975,40.40329173175628
3464,CERRO MINGUETE-RISCOS DE POLANCO,8,-3.7206517488842574,40.488870014488555
3486,PRINCIPE VIANA-PROCION,9,-3.800412150999768,40.47061548841207
3490,DARIO APARICIO Nº35,9,-3.7676039565821977,40.472459685248964
3492,HUMERA Nº 35,9,-3.7807319075521444,40.4519394455987
3494,DARIO APARICIO-VIÑAS PARDO,9,-3.7693918334282737,40.47406940308367
3424,JOAQUIN LORENZO-ISLA MALAITA,8,-3.7213157752942023,40.47484796777169
3497,ALVAREZ AVELLAN-PZA.TARIFA,11,-3.7289290616155837,40.38571908015021
3352,CONCEJAL FCO.J.MARTIN-VIÑEGRA,10,-3.738016786108391,40.40336423628189
3353,CONCEJAL FCO.J.MARTIN-HURTUMPASCUAL,10,-3.7414060650436345,40.40293714147809
3356,AV.POBLADOS-ALUCHE,10,-3.7614756744980435,40.38834714984927
3830,BACARES-GOLFO DE SALONICA,16,-3.6632438557332043,40.48017782908199
3831,DALIA-ARTURO SORIA,15,-3.6655487450448914,40.481804205851084
3833,CANOA-BALANDRO,21,-3.5899466533700672,40.45505282099131
3834,BATEL-PZA. DEL MAR,21,-3.5871699253979497,40.45445434963287
3841,PARTENON-CAMPO NACIONES,21,-3.6141834334999823,40.465494109475095
3846,AV.LOGROÑO-BAHIA CADIZ,21,-3.591606783545637,40.46280109007784
3719,JOSE ABASCAL-ALONSO CANO,7,-3.6967145995657216,40.44019722407083
3727,CONGOSTO-PEÑA RIVERA,18,-3.618312991428048,40.37551662044894
3729,CONGOSTO-PEÑA RIVERA,18,-3.618316203851273,40.37586795931924
3730,JESUS DEL PINO-SIERRA DE GUADALUPE,18,-3.622901193942544,40.38382542958598
3731,PEÑA CERVERA-CONGOSTO,18,-3.6169081959912988,40.3726051658864
2157,ALCALA-CIUDAD PEGASO,20,-3.5948592978847542,40.45177538313078
2160,AV.SEGUNDA-CALLE OCHO,20,-3.592768200733793,40.448669006525904
2161,PZA.SAN CRISTOBAL,20,-3.5931325104719254,40.4512076814049
2168,ALCALA-AV.CANILLEJAS A VICÁLVARO,20,-3.615231068716539,40.44586691990392
2169,ALCALA-CRONOS,20,-3.619722839807907,40.444473549679415
2171,ALCALA-METRO DE SUANZES,20,-3.6262861254683667,40.44269041900983
2176,CRISTO VICTORIA-SANTUARIO,12,-3.6984250278085917,40.38442088402665
2177,CRISTO VICTORIA-FERROVIARIOS,12,-3.7017399492572345,40.382571964796256
2042,ARTURO SORIA-CONDESA DE VENADITO,15,-3.6476508092770055,40.4486717718664
2044,ARTURO SORIA-MARQUES PICO VELASCO,15,-3.6419736680230907,40.445676418913564
2046,"HERMANOS GARCIA NOBLEJAS, 184",15,-3.6243911344400983,40.422673576972535
2047,HERMANOS GARCIA NOBLEJAS-PZA.ALSACIA,15,-3.6230774731308286,40.42083380920462
2051,NICOLAS SALMERON-CEMENTERIO CIVIL,15,-3.632889053000074,40.42379853573753
2052,FCO.LARGO CABALLERO-N.SALMERON,15,-3.6338547603873534,40.42495541138936
2057,ARTURO SORIA-JOSEFA VALCARCEL,15,-3.647582911957456,40.44896944961818
2058,ARTURO SORIA-HOSPITAL NTRA.SRA.AMÉRICA,15,-3.649216880908342,40.450879200585156
2059,ARTURO SORIA-DIEGO AYLLON,15,-3.650720963091836,40.45276263205008
2062,ARTURO SORIA-LOPEZ DE HOYOS,15,-3.658196264442852,40.46105361769794
2063,ARTURO SORIA-AÑASTRO,15,-3.664366672515252,40.46841468049419
2064,FELIX RODRIGUEZ DE LA FUENTE,14,-3.6562849288935397,40.417352719737494
2065,DR.GARCIA TAPIA-CORR.DIEGO VALDERRABANO,14,-3.655627382498695,40.415185268665375
2068,Cº VINATEROS-ARROYO BELINCOSO,14,-3.6488384821885864,40.411529859975445
2069,Cº VINATEROS-MARROQUINA,14,-3.646627965021386,40.41084854860451
2070,Cº VINATEROS-AV.MORATALAZ,14,-3.6435713004584356,40.40918091113765
3052,AV.RAFAEL FINAT-GRAL.SALIQUET,10,-3.771771016053915,40.37681033267914
3563,TREN DE ARGANDA-INDALECIO PRIETO,19,-3.6179762611410595,40.405689918653984
3570,JUAN ESPLANDIU-SAINZ BARANDA,3,-3.6632829117766454,40.42059206956871
3467,Pº LOS OLIVOS-CARAMUEL,10,-3.7292837404408385,40.40876202632271
3479,LA MASO HOSPITAL RUBER,8,-3.7128198808414434,40.49138704144256
3487,PRINCIPE VIANA-PROCION,9,-3.8002814394239195,40.470535313371926
3491,GOLONDRINA-EST.ARAVACA,9,-3.783730319650658,40.45118041612731
3390,CAMARENA Nº 186,10,-3.7543181278684417,40.39204274354903
3398,AV.OROVILLA-CIRCULO,17,-3.6885071163044545,40.36378644517887
3403,GOYA-FERNAN GONZALEZ,4,-3.672937209045335,40.4265272783276
6166,PºESPERANZA-MORATINES,2,-3.7038983706635116,40.40430675520522
3346,ALHAMBRA-GTA.LOS CARMENES,10,-3.7424103734863823,40.397813553404674
3347,CTRA.BOADILLA MONTE-GALICIA,10,-3.7718484578593627,40.401134281474356
3348,CONCEJAL FCO.J.MARTIN-HURTUMPASCUAL,10,-3.741698580682111,40.40274607499952
3349,CONCEJAL FCO.J.MARTIN-VIÑEGRA,10,-3.7376856598157366,40.40325824117845
3213,POLITECNICO frente E.ESPECIAL VALLECAS,13,-3.6295569168901105,40.390077735461134
3214,ESCUELA DE MAESTRIA INDUSTRIAL,13,-3.6280980525107336,40.38904061456512
3215,ESCUELA INGENIERIA TECNICA-ARBOLEDA,13,-3.6263512821860897,40.38998703866733
3221,CONDESA VENADITO-AGASTIA,15,-3.649694359080068,40.4478044459436
3226,MOSCATELAR-MILAN,16,-3.6456858886205126,40.45898906388362
3227,SILVANO-PZA.DEL LICEO,16,-3.642319575326084,40.459710524988495
3228,SILVANO-ALCORISA,16,-3.637794379474402,40.463861706283694
3233,VALDETORRES DE JARAMA-LIBERACION,16,-3.6419327033440836,40.47234326936898
3234,AV.SAN LUIS-PZA.SANTOS HUMOSA,16,-3.648115977821687,40.47498441844826
3236,PZA.SANTOS DE LA HUMOSA,16,-3.647949960363663,40.47489525981206
3237,VALDETORRES DE JARAMA-ROGELIO MUÑOZ,16,-3.645578231545533,40.47361124303699
3238,VALDETORRES DE JARAMA-ANGEL LUIS HERRAN,16,-3.6436005085472964,40.47281146783689
3624,SOFIA-MANCHESTER,20,-3.600127136828933,40.43147782442847
3625,JULIA GARCIA BOUTAN-SUECIA,20,-3.6034934506404723,40.432181020061634
3626,JULIA GARCIA BOUTAN-SUECIA,20,-3.6035771025406755,40.43230670988883
3630,ALBAIDA-AV.CANILLEJAS,20,-3.611178613261924,40.435897406797025
3632,ALBERIQUE-ALBAIDA,20,-3.618291663467161,40.431129827439385
3634,SAN ROMUALDO-ALCALA,20,-3.6216716356227403,40.443535153945824
3638,GANDHI-LUIS RUIZ,15,-3.63291168807751,40.42621283700086
3640,LOPEZ ARANDA-ANTIOQUIA,20,-3.6344020515508415,40.44555606732436
3641,LOPEZ ARANDA-ANTIOQUIA,20,-3.634450403351658,40.44568192813592
3642,SUECIA-BUCAREST,20,-3.602893934200825,40.428418366275096
3644,CANAL BOSFORO-AV.CANILLEJAS,20,-3.6127281046878834,40.4416369659896
3646,AV.CANILLEJAS-NECTAR,20,-3.613799518627586,40.44275740925368
3505,EMBAJADORES-BRONCE,2,-3.6895344588872185,40.38946528786343
3508,AV.POBLADOS-MELILOTO,10,-3.7666261339507257,40.3926554785703
3510,RAMON PEREZ DE AYALA Nº 60,13,-3.6503978920402185,40.403340859449905
3513,AV.PABLO NERUDA-CENICIENTA,13,-3.655590891210676,40.38349152374211
3514,AV.PABLO NERUDA-SANTOS INOCENTES,13,-3.6576289215819275,40.38347994883442
3516,PTO.BALBARAN-NOVECENTO,13,-3.6545172345116828,40.37846151401344
3517,EL GRADUADO-TRV.FELIPE DIEGO,13,-3.6584565244230314,40.3801508771714
3520,PTO.CRUZ VERDE-PTO.SERRANO,2,-3.6844315358637405,40.38818028400991
3522,AV.PABLO NERUDA-SANTOS INOCENTES,13,-3.6575318736999622,40.38319220941968
3529,ALDEANUEVA DE LA VERA-AV.AVIACION,10,-3.7754174588517655,40.377371524565525
3533,EMBAJADORES-AV.PLANETARIO,2,-3.6886398339339572,40.38838952967958
1455,SINESIO DELGADO-HOSPITAL CARLOS III,6,-3.696239251542407,40.476389158695575
1457,SINESIO DELGADO-Pº CASTELLANA,6,-3.686397070504047,40.47607867425795
1458,Pº CASTELLANA-LUIS ESTEBAN,6,-3.6864795131668666,40.474907020254086
1459,Pº CASTELLANA-GRAL.ARANDA,6,-3.6870491283025832,40.47292166411779
1461,BRAVO MURILLO-AGUILEÑAS,6,-3.691697138619325,40.467182252953194
1465,BRAVO MURILLO-CAROLINAS,6,-3.7020262863777886,40.45321010760529
1468,AVILA-BRAVO MURILLO,6,-3.701168995921133,40.45469278556659
1470,CONCHA ESPINA-PZA.LIMA,5,-3.687668038238411,40.45380093946602
1472,AV.CONCHA ESPINA-SERRANO,5,-3.6795863855113273,40.453488386093305
1476,AV.RAMON Y CAJAL-MOSTOLES,5,-3.666903848908069,40.454210916812855
1479,CLARA DEL REY-CARDENAL SILICEO,5,-3.668683073773846,40.44453397718429
1480,CLARA DEL REY-ANASTASIO AROCA,5,-3.671259824717309,40.44278030101831
1484,CORAZON DE MARIA-ALUSTANTE,5,-3.6676619025736032,40.443819160211746
1486,CORAZON DE MARIA-STA.RITA,5,-3.6652246075562074,40.44777015114047
2766,ANTONIO LEYVA-NAVAHONDA,11,-3.7140500026465424,40.39362280698183
2772,STA.ESCOLASTICA-EDUARDO BARREIROS,17,-3.698265258120818,40.36438559303752
2774,MANOJO DE ROSAS-PQUE.KATIUSKA,17,-3.695964114163262,40.36051653315226
2781,ANTONIO LEYVA-ALEJANDRO SANCHEZ,11,-3.7148324806873716,40.390735067182916
2783,ANTONIO LEYVA Nº 25,11,-3.71399094045068,40.39583940340663
2786,BLASA PEREZ-EL TOBOSO,11,-3.725566942640946,40.394091642288025
2787,TERCIO-GESALEICO,11,-3.7272784115163264,40.39545927540081
1916,ISLAS ALEUTIANAS-JOAQUIN LORENZO,8,-3.728025008015529,40.4767247973821
1918,JUAN J.LOPEZ IBOR-ISLA CRISTINA,9,-3.7247963897424428,40.47160098544749
1919,NUEVA ZELANDA-RUPERTO ANDRES,9,-3.722991170935518,40.469369064950605
1922,FCOS.RODRIGUEZ-ANTONIO MACHADO,9,-3.7174565708499685,40.46140360162876
1923,FCOS.RODRIGUEZ-INST.VIRGEN DE LA PALOMA,9,-3.7136699106105127,40.46023786448462
1928,VILLAMANIN-VILLASANDINO,10,-3.7520327833447626,40.407967616749346
1929,VILLAMANIN-Cº CAMPAMENTO (BATAN),10,-3.7511643695085146,40.409360654928705
1930,Cº CAMPAMENTO-VILLAGARCIA,9,-3.753661864800044,40.40820926016837
1934,CTRA.BOADILLA MONTE-MIRLO,10,-3.768207108056914,40.40113150943844
1937,ADANERO,10,-3.7784270305000827,40.396279341110734
1941,VILLAVICIOSA-CARABIAS,10,-3.766509012885343,40.3999896234528
1947,Pº CASTELLANA-DANIEL VAZQUEZ DIAZ,5,-3.6849931976461283,40.47724015104186
1948,Pº CASTELLANA-MANUEL CALDEIRO,5,-3.684348952646463,40.47885657082245
1949,Pº CASTELLANA-VIEJAS,5,-3.6836905895841188,40.48141000078761
1951,AV.LLANO CASTELLANO-FCO.SANCHA,8,-3.6825722604115723,40.48747963112674
1955,NTRA. SRA. DE VALVERDE,8,-3.686121943030729,40.49655762711457
1956,NTRA.SRA.VALVERDE-MANUEL VILLARTA,8,-3.6856970197284773,40.4988664336697
1957,GTA.FUENTE DE LA CARRA,8,-3.6851902606432754,40.50009465307366
1960,NTRA.SRA.VALVERDE-ISLAS JARVI,8,-3.685366399761108,40.494210781790684
1965,MAURICIO LEGENDRE-M.CALDEIRO,5,-3.682859595042761,40.47857709542902
3540,SAN ROMUALDO-JULIAN CAMARILLO,20,-3.6198996076642227,40.439328447382884
3559,AV.BETANZOS-CHANTADA,8,-3.710409769375646,40.47544705869895
5962,ALFONSO XIII-PEÑA PRIETA,13,-3.663186955041889,40.40361955021056
3301,MURIAS DE PAREDES-HERMANOS GASCON,16,-3.6317575775781137,40.4842461386482
3303,MOMBUEY-ROBLA,16,-3.634707375338033,40.485509244623586
3309,AEROPUERTO T1,21,-3.569234194693981,40.465904451651795
3315,ARTURO SORIA-CUARTEL INFANTERIA MARINA,15,-3.6670847678839094,40.47726384380348
3324,AV.BUENOS AIRES-PEDRO LABORDE,13,-3.6518632172082324,40.38665677978533
3325,AV.BUENOS AIRES-PEDRO LABORDE,13,-3.651534475544928,40.38677575126961
3327,AV.BUENOS AIRES-CLEOPATRA,13,-3.6512458704489608,40.38372329065978
3652,TAMPICO,20,-3.634547688471751,40.447248962756056
3654,FTE.CARRANTONA-PASAJE DE ORUSCO,14,-3.6292788472704007,40.410827179543126
3658,OBISPO TREJO-MARTIN FIERRO,9,-3.730649858210108,40.43807776694929
3659,VALLEHERMOSO-DONOSO CORTES,7,-3.7070437324478775,40.43796332623068
3661,Pº YESERIAS-ARGANDA,2,-3.7030640953864076,40.398879366269234
3662,AV.DE SENECA-SENDA DEL REY,9,-3.731998621185249,40.43633049548922
3666,AV.GRAL.FANJUL-AV.RAFAEL FINAT,10,-3.764065622100779,40.38607779525814
3672,PTO.PORZUNA-CONGOSTO,18,-3.6195946637625522,40.37783411387081
3675,VILLALOBOS-AV.MIGUEL HERNANDEZ,13,-3.6506412359101055,40.38210505537813
3676,CRISTO VICTORIA-OLVIDO,12,-3.7004148466604505,40.383165591348295
3678,CONCEJAL FCO.J.MARTIN-CHISPEROS,10,-3.729795675908212,40.404875895756966
3680,CONCEJAL FCO.J.MARTIN-CHISPEROS,10,-3.729938350088148,40.40499211260595
3682,Pº YESERIAS-MELILLA,2,-3.7095499815712207,40.401578494563985
3683,Pº YESERIAS-MELILLA,2,-3.709583629208574,40.40141612490411
3687,GOLONDRINA-RIO ARLANZON,9,-3.783556160589436,40.4514158300445
3689,GOLONDRINA-CARRETERA HUMERA,9,-3.7800808372763295,40.45784470916
3691,PRINCIPE DE VERGARA-REP.DOMINICANA,5,-3.675158513576231,40.46119900516044
3694,GOLONDRINA-VIRGEN DE LOS ROSALES,9,-3.783652106280689,40.45561335406226
3697,Pº ARTILLEROS-AV.DAROCA,19,-3.6079696269587163,40.40818444284577
3707,PARQUE DE LA PALOMA-HENO,12,-3.712682277447188,40.380126629539625
5489,AV. Cº SANTIAGO-SAN JUAN DE ORTEGA,8,-3.6718241140760184,40.505326248174335
5491,AV. CºSANTIAGO - CASTIELLO DE JACA,8,-3.6731778960661856,40.50261569335055
1726,AV.ALBUFERA-AV.PABLO NERUDA,13,-3.642181551036822,40.39068397888341
1728,AV.ALBUFERA-AV.MIGUEL HERNANDEZ,13,-3.6362062933678394,40.3880142854272
1729,AV.ALBUFERA-TRANVIA DE ARGANDA,13,-3.630917656123607,40.38564684565401
1730,AV.ALBUFERA Nº 430,13,-3.629049641784991,40.3849453051096
1733,SIERRA DE GUADALUPE-SAN JAIME,18,-3.6224597522016797,40.38322419641778
1735,JESUS DEL PINO Nº 24,18,-3.622474269978771,40.38352141909551
1737,AV.ALBUFERA Nº 323,13,-3.6289685169605477,40.385089892287596
1738,AV.ALBUFERA-TRANVIA DE ARGANDA,13,-3.6308367866908404,40.38581846005619
1739,AV.ALBUFERA-AV.MIGUEL HERNANDEZ,13,-3.63588912888659,40.38811513055241
1743,AV.ALBUFERA-INSTITUTO TIRSO MOLINA,13,-3.649405245258375,40.3932472549808
1745,AV.ALBUFERA-PAYASO FOFO,13,-3.6564383912346243,40.394333669048436
1747,AV.ALBUFERA-SIERRA CARBONERA,13,-3.6620053314527787,40.397283931646854
1751,Pº STA.Mª DE LA CABEZA-MARIBLANCA,11,-3.707086651983208,40.39365659789069
1754,GRAL.RICARDOS-PUERTA BONITA,11,-3.7327318973957224,40.38874010886723
1762,ALHAMBRA-GTA.LOS CARMENES,10,-3.7421267947079384,40.39774330174208
1764,NTRA.SRA.VALVANERA-TORTOLA,11,-3.735093460233103,40.392463881763284
1771,Pº STA.Mª CABEZA-BALEARES,12,-3.7104823610634514,40.39162675471957
1634,ETRURIA-TROYA,20,-3.609959335238452,40.43796691751813
1637,AV.CANILLEJAS-POBLADURA VALLE,20,-3.6099846660384904,40.429029813719175
1640,JOSE DEL HIERRO-MANDARINA,15,-3.6430003763540393,40.442049086248986
1644,AV.DONOSTIARRA-PZA.JOSE BANUS,15,-3.6548809402163083,40.436658046161796
5469,SAN CIPRIANO-CAÑOS DE SAN PEDRO,19,-3.600522923575473,40.40572785230551
2745,GALEON-BERGANTIN,21,-3.580876471135211,40.46043210336914
2750,JUAN I.LUCA TENA-JARDIN BOTANICO,20,-3.6287589807740166,40.449920242312835
2753,TELEMACO-INST.NAC.ESTADISTICA,20,-3.6399473484894203,40.44960657728594
2754,ANGELITA CAVERO-GRAL.ARANAZ,15,-3.645380571227147,40.44927005753488
2755,AV.AMERICA-PARQUE AVENIDAS,5,-3.6637129681761924,40.44514821211504
2761,DR.GARCIA TAPIA-FTE.CARRANTONA,14,-3.629299430685505,40.40924147056814
2762,AV.AMERICA-PQUE.CONDE ORGAZ,16,-3.638887664659584,40.45102685462883
2764,ANTONIO LEYVA-MARQUES VADILLO,11,-3.714141134604971,40.39890155866915
2765,ANTONIO LEYVA-CONDES BARCELONA,11,-3.714027450741708,40.39706441129741
3813,BARROS-RONDA SUR,13,-3.6631794193608007,40.37523193363648
3814,RONDA SUR-BARROS,13,-3.663755886344974,40.37515655264104
3815,Pº MUÑOZ GRANDES-LAGUNA,11,-3.7408132304479547,40.38863455263306
3820,AREQUIPA-TREFACIO,16,-3.63267801670104,40.47043936268439
3822,RIBERA DEL LOIRA Nº 16-18,21,-3.6231017026412617,40.468140052584204
3825,AV.CONSEJO EUROPA-RIBERA LOIRA,21,-3.6153118276110443,40.4611818070606
3826,AV.LOS ANDES-AV.MACHUPICHU,16,-3.62079085560804,40.45673809359556
2789,FRAGATA-MATILDE HERNANDEZ,11,-3.7322994810733334,40.39558974171384
2790,ZAIDA-FRAGATA,11,-3.7346446759015537,40.395619907639464
2792,EL TOBOSO-ERVIGIO,11,-3.7300652996534973,40.39492819259492
2794,BLASA PEREZ-GRAL.RICARDOS,11,-3.725600741709055,40.393947285048085
2796,ILLESCAS Nº 34,10,-3.761303548044423,40.39607805694314
2801,AV.POBLADOS-PRISION,10,-3.756189537189326,40.38343586634864
2738,JOSEFA VALCARCEL-GUTIERREZ CANALES,20,-3.613736545893103,40.4513883852783
2670,VITAL AZA-EZEQUIEL SOLANA,15,-3.6429729684349312,40.43298615745332
2671,EZEQUIEL SOLANA-FCO.VILLAESPESA,15,-3.6422570883013976,40.43085499618667
2673,EZEQUIEL SOLANA-ARRIAGA,15,-3.63954850321745,40.42743757085818
2675,GANDHI-SAN TELESFORO,15,-3.6353014353473867,40.42585738273287
2676,RICARDO ORTIZ Nº 20,15,-3.6566956871552043,40.42928737157989
2677,RICARDO ORTIZ-SAN EMILIO,15,-3.6565577355231165,40.42722508569952
2681,JOSE LUIS ARRESE-STA.GENOVEVA,15,-3.6503630177949358,40.42419703339153
2683,STA.IRENE-SAN LAMBERTO,15,-3.6507712852068264,40.42130283116698
2685,CEMENTERIO DE LA ALMUDENA PARCADA 1,15,-3.6463368791283624,40.4198412188256
2687,CEMENTERIO DE LA ALMUDENA PARADA 3,15,-3.6401741262551637,40.418821455518184
2688,CEMENTERIO DE LA ALMUDENA PARADA 4,15,-3.63688979306574,40.41928104262116
2689,CEMENTERIO DE LA ALMUDENA PARADA 5,15,-3.6338749903078913,40.419576895669096
2690,CEMENTERIO DE LA ALMUDENA PARADA 6,15,-3.636903364377063,40.4194701580361
2692,CEMENTERIO DE LA ALMUDENA PARADA 8,15,-3.6409001415955813,40.42079942438563
2694,CEMENTERIO DE LA ALMUDENA PARADA 10,15,-3.6409142966268595,40.426015585549216
2696,CEMENTERIO DE LA ALMUDENA PARADA 12,15,-3.6463279380029667,40.42013856757777
2698,STA.IRENE-JOSE LUIS ARRESE,15,-3.6513585016920924,40.42229952800005
2699,JOSE LUIS ARRESE-STA.GENOVEVA,15,-3.6501644499336106,40.424387340457635
2702,RICARDO ORTIZ-SAN SECUNDINO,15,-3.655942533580417,40.425787132182286
2703,RICARDO ORTIZ-SAN EMILIO,15,-3.6564310444565917,40.427532112606166
2705,Pº ACACIAS-Pº OLMOS,2,-3.708382157685856,40.40483792749467
1646,AZCONA-PILAR ZARAGOZA,4,-3.6680462889593763,40.43619531143058
1647,AZCONA-FCO.SILVELA,4,-3.670909179130796,40.434791338925955
1652,GTA.PIEDRAFITA DEL CEBRERO,8,-3.7112172661900886,40.47371237316835
1654,CAPITAN BLANCO ARGIBAY-SORGO,6,-3.7044961957715237,40.469501317105674
1657,VILLABLANCA-VIVERO PILARICA,19,-3.601680236291605,40.40864077788321
1659,MATEO INURRIA-ENRIQUE LARRETA,5,-3.6837273243178417,40.46875219844369
1663,AV.SAN LUIS-CUEVAS DE ALMANZORA,16,-3.661980222604431,40.4752481654047
1665,AV.SAN LUIS-CTRA.ESTACION,16,-3.6556231300118247,40.47298712245975
1666,AV.SAN LUIS-PZA.SANTOS HUMOSA,16,-3.6482192868581516,40.47468654301559
1667,SANTA SUSANA-MAR DE LAS ANTILLAS,16,-3.6453356675404045,40.4778468126466
1669,STA.ADELA-MAR DE LAS ANTILLAS,16,-3.6477347548608043,40.48073427473353
1671,AV.SAN LUIS-COSTA DEL SOL,16,-3.6505881145006884,40.47443899714937
1672,AV.SAN LUIS-CRTA.ESTACION HORTALEZA,16,-3.655718989303508,40.47313973100784
1675,CAIDOS DIVISION AZUL-AV.PIO XII,5,-3.673363882228552,40.46928151821343
1676,CAIDOS DIVISION AZUL-DUQUE DE PASTRANA,5,-3.6764020041536662,40.46993043845245
1693,AV.MANZANARES-SAN POMPEYO,11,-3.720732006890725,40.40256337919856
1697,PZA.DEL PERU,5,-3.6754625704789374,40.462116144351135
5467,DIEGO DE LEON - PRINCIPE DE VERGARA,4,-3.6775525645276814,40.43651835261299
3417,SINESIO DELGADO-HOSPITAL CARLOS III,8,-3.696300003417803,40.47655996270864
3418,RIBADAVIA-SINESIO DELGADO,8,-3.703324465822904,40.47477869378085
3420,RIBADAVIA-CHANTADA,8,-3.7094530604573888,40.47421871032226
3421,CHANTADA-RIBADAVIA,8,-3.709053789346755,40.47439233103624
3278,MOTA DEL CUERVO Nº 48,16,-3.630000905257098,40.466724270284246
3280,MOTA DEL CUERVO Nº 9,16,-3.6302149018195675,40.46690328312177
3281,Pº PLATA Y CASTAÑAR-PLEAMAR,17,-3.7149196225399894,40.351058416365404
3283,PUENTE DE VALLECAS,13,-3.6669547262759514,40.40089515081889
3285,BURJASOT-BENIFERRI,17,-3.6896550879664756,40.3469955760487
3289,DARIO APARICIO,9,-3.764501482763238,40.46726407618953
3291,AV.VALDEMARIN-FUENTE DEL MOLINO,9,-3.7719824548872385,40.47262871398656
3292,AV.VALDEMARIN-CABELLERA BERENICE,9,-3.7769805420373412,40.47230693014339
3295,BLANCA DE CASTILLA-Cº DE LA ZARZUELA,9,-3.7820722361825396,40.46684019519666
3298,AV.VALDEMARIN-LAVADERO,9,-3.7720026412088266,40.472331284335105
803,FRENTE N. 20,3,-3.687418566778936,40.418901496193904
805,AV.MENENDEZ PELAYO-A.SAINZ BARANDA,3,-3.6771187590802836,40.41913346292957
806,HOSPITAL NIÑO JESUS,3,-3.67623315953046,40.41662512305594
809,LOS ASTROS-CRUZ DEL SUR,3,-3.667865432495248,40.413151233040125
810,ESTRELLA POLAR-PEZ AUSTRAL,3,-3.664304386925811,40.41299157185452
811,Cº VINATEROS-M30,14,-3.6583241407532667,40.41252127790488
814,HACIENDA PAVONES-PZA.ENCUENTRO,14,-3.649480629727372,40.40721991890557
815,HACIENDA PAVONES-ALONSO TOBAR,14,-3.6471843898792624,40.40618774509721
816,HACIENDA DE PAVONES-CAÑADA,14,-3.6473040922989584,40.40515103123443
2900,AV.BURGOS Nº30,5,-3.674359339692942,40.481527898312244
2901,BAMBU-YUCA,5,-3.6748722515033085,40.4785519495157
2903,AVDA.BURGOS-AVDA.PIO XII,5,-3.67452134017314,40.47413960900952
2905,Pº. CASTELLANA-HOSPITAL LA PAZ,5,-3.6838181658219984,40.48235518527907
2906,AVDA.MANOTERAS-AVDA.BURGOS,16,-3.6706886400965697,40.49086451069881
2907,OÑA-AV.MANOTERAS,16,-3.668362757671771,40.490733845198434
2910,OÑA Nº111,16,-3.6608527405916997,40.49139865973461
2920,DR.MARTIN AREVALO-Pº ALBERTO PALACIOS,17,-3.7068355905355026,40.348225188550494
2921,CTRA.VILLAVERDE A VALLECAS-VILLAFUERTE,17,-3.6895676155315438,40.35459080863209
2923,CTRA. VILLAVERDE A VALLECAS-AV.ROSALES,17,-3.6812345972886544,40.36205472314489
2925,Cº HORMIGUERAS-TORRE DE DON MIGUEL,18,-3.643761855114151,40.37599033949934
2930,SAN JAIME-AV.ALBUFERA,18,-3.6243736591641698,40.382529183026016
2932,AV.DEMOCRACIA-AV.MEDITERRANEO,13,-3.621152449082179,40.390961045010535
2933,JOSE PRAT-AV.DEMOCRACIA,19,-3.617880595525154,40.39909577735612
2936,CALAHORRA-GALLO,19,-3.6134688528166046,40.4076779074723
2937,JOSE PRAT-AV.DEMOCRACIA,19,-3.6165865939754256,40.398048622452315
2940,SAN JAIME-SIERRA DE GADOR,18,-3.623448903344205,40.3831738209083
2942,SAN JAIME-PUERTO DE POZAZAL,18,-3.626189028784119,40.38137520667883
2944,Cº HORMIGUERAS-GONZALEZ DAVILA,18,-3.6370171941889544,40.377793485806514
2874,STO.ANGEL DE LA GUARDA-ARCINIEGA,9,-3.7118896246444995,40.46477134697803
2945,Cº HORMIGUERAS-CASAS DE MIRAVETE,18,-3.640390252679407,40.376964030740766
2809,TANATORIO SUR,11,-3.720619432927288,40.375428736858716
2814,AV.POBLADOS-RAFAELA YBARRA,12,-3.711502220205603,40.375458175579695
5443,ALMAGRO-Pº EDUARDO DATO,7,-3.690252826620617,40.43440716451841
2270,AV.PUERTA DE HIERRO-FILOSOFIA B,9,-3.7344407267036357,40.45054920762648
2271,FACULTAD DE VETERINARIA,9,-3.735758879202814,40.4513876672923
2276,AV.C.HERRERA ORIA-FUENTEMILANOS,8,-3.7436866463455276,40.47730974187307
2277,AV.C.HERRERA ORIA-ARROYOFRESNO,8,-3.7403009765311936,40.47840354530807
2279,AV.C.HERRERA ORIA-ENRIQUE LEYRA,8,-3.7313366011605433,40.47857774505443
2281,MONFORTE DE LEMOS-AV.BETANZOS,8,-3.7100651970754095,40.47969238985655
2282,MONFORTE DE LEMOS-JUNTA MUNICIPAL,8,-3.7071927326396144,40.48028657782207
2283,MONFORTE DE LEMOS-LA VAGUADA,8,-3.7035078881160066,40.481047804284856
2285,PEDRO RICO-FINISTERRE,8,-3.700570621031592,40.484498056238394
2288,A.LOPEZ AGUADO-ARZOBISPO MORCILLO,8,-3.6980381451377884,40.48490977620945
2290,FINISTERRE-MONFORTE DE LEMOS,8,-3.7015487830994536,40.48212277047453
2294,AV.BETANZOS-Pº DE LA VAGUADA,8,-3.7111661324570755,40.48116308561869
2295,AV.C.HERRERA ORIA-ENRIQUE LEYRA,8,-3.7314331280481756,40.47877533070473
2297,AV.C.HERRERA ORIA-NAVALUENGA,8,-3.74460569270624,40.47720472507476
2312,ARROYO POZUELO-ACEBUCHE,9,-3.767576659763797,40.453487019464475
2317,GTA.MARIA REINA,9,-3.7854870268627345,40.46126752670576
2318,AV.OSA MAYOR-PLEYADES,9,-3.7831016512581757,40.461022455990324
2184,FERNANDO ORTIZ-AV.ORCASUR,12,-3.7005146826431767,40.36892159191327
2186,SALVADOR MARTINEZ-E.BARREIROS,12,-3.6963695158253,40.36900969566161
1562,MARCELO USERA-FERROVIARIOS,12,-3.7040686085349686,40.38784614254381
1569,AV.ABRANTES-PELICANO,11,-3.724370981572883,40.38474772075332
1572,AV.ABRANTES-CARRERO JUAN RAMON,11,-3.7308888290920157,40.37955350226125
1574,"CARCASTILLO, FRENTE Nº27",11,-3.7361325352256953,40.379682397681556
1577,PZA.NAVARROS-ALISEDA,11,-3.7412524226209944,40.3760370409905
2727,ARROYO MEDIA LEGUA-DR.Gª TAPIA,14,-3.6523796028392193,40.414518955797625
2728,ARROYO MEDIA LEGUA-Cº VINATEROS,14,-3.6539429552124156,40.41286146379565
2735,JUAN I. LUCA DE TENA Nº14,20,-3.630584157167082,40.44963101851028
2737,GTA.RICARDO VELAZQUEZ BOSCO,20,-3.62429528049066,40.449268765250494
2669,GUTIERRE DE CETINA Nº 14,15,-3.6428202429509846,40.43551854501868
2604,FCO.LARGO CABALLERO-ARRIAGA,15,-3.6383991971283236,40.42557905214414
2605,AVDA.DAROCA-CEMENTERIO ALMUDENA,15,-3.642521021754483,40.42761928389404
2606,AV.DAROCA-SANTA PRISCA,15,-3.646606692953666,40.42955146123259
1278,NTRA.SRA.FATIMA-MONS.OSCAR ROMERO,11,-3.746200806629993,40.3846539299101
1282,MQUES.VALDAVIA-RONDA ATOCHA,2,-3.694548623024363,40.40846243123524
1283,Pº IMPERIAL-GTA.PIRAMIDES,2,-3.713471356804729,40.40354536117463
1284,Pº IMPERIAL-Pº PONTONES,2,-3.714369559689445,40.40601730448921
1288,Pº. VIRGEN DEL PUERTO-FOSFORO,2,-3.71980965211922,40.41332593121634
1290,Pº EXTREMADURA Nº 190,10,-3.7429792781948583,40.40990004126713
1291,Pº EXTREMADURA-VILLAMANIN,10,-3.746723325209249,40.40848852428551
1296,Pº EXTREMADURA-CAMPAMENTO,10,-3.766857624641642,40.39851883672974
1300,Pº EXTREMADURA-SESEÑA,10,-3.7623908223631544,40.40158443001692
1303,Pº EXTREMADURA-BATAN,10,-3.750206056762497,40.406907410491094
1304,JUAN DUQUE-SEGOVIA,2,-3.718130155573887,40.41499404080945
1306,JUAN DUQUE-PIZARRA,2,-3.71821582397734,40.41196647060905
1308,Pº MELANCOLICOS-MARMOL,2,-3.7192458745488954,40.406869954273475
1312,BRAVO MURILLO-JOSE ABASCAL,7,-3.702961960545708,40.44001525088133
1315,FCO.DE ROJAS-SAGASTA,7,-3.6981962572127536,40.430692782136155
1250,GRAL.RICARDOS-Pº MUÑOZ GRANDES,11,-3.738161721771761,40.38642627126649
1184,VALDEBERNARDO-LUIS HOYOS SAINZ,14,-3.63006594280928,40.40549852801939
1185,LUIS HOYOS SAINZ-FTE.CARRANTONA,14,-3.6332738373564917,40.40575127106372
1188,AV.MORATALAZ-PICO ARTILLEROS,14,-3.6403178627457957,40.4116044004542
1189,AV.MORATALAZ Nº189-COLEGIO SENARA,14,-3.641573858035931,40.411065901136574
1192,ESTRELLA POLAR-CRUZ DEL SUR,3,-3.666381646126517,40.41208771847467
990,Pº. ERMITA DEL SANTO,10,-3.722081893074957,40.411987430372584
992,Pº. ERMITA DEL SANTO,10,-3.723262035193066,40.407727782917874
993,GALLUR-VIA CARPETANA,10,-3.7338360151775047,40.40036380937553
995,GALLUR FRENTE Nº 425,10,-3.7405803515479668,40.39856403409389
996,DUQUESA DE PARCENT - GTA. LOS CARMEN,10,-3.743710630105688,40.39711149836527
998,DUQUESA DE PARCENT-CUART DE POBLET,10,-3.75016484843133,40.39788962074496
1004,SESEÑA-ILLESCAS,10,-3.763822329478198,40.39895334777874
1005,SESEÑA,10,-3.7640457979592576,40.3989158348528
639,Pº. CASTELLANA-AZCA,6,-3.6897313942607544,40.451446305892624
5419,AV.CAMILO JOSE CELA-AV.GUINDALERA,4,-3.6649785908968386,40.44314994558481
905,Pº ALBERTO PALACIOS-Pº FERROVIARIOS,17,-3.714916936394181,40.34522951739939
907,Pº ALBERTO PALACIOS-ALADIERNA,17,-3.710094508008304,40.34796197516533
911,ALCOCER-LITOS,17,-3.6994164496590836,40.351558639081965
912,ALCOCER-VIRGEN DESAMPARADOS,17,-3.6959820792223153,40.351957745220936
779,VERBENA DE LA PALOMA-LA CHULAPONA,17,-3.6937810425809237,40.36239454230348
780,AV.ANDALUCIA-AV.LOS ROSALES,12,-3.692611745667654,40.3701223701991
782,AVDA.ANDALUCIA-MEZQUITA,12,-3.6931531414893235,40.374677736756276
789,Pº YESERIAS-PQUE.ARGANZUELA,2,-3.7064104810898284,40.39998509936711
790,Pº YESERIAS-Pº ACACIAS,2,-3.7118696168497856,40.40251919402329
794,ALFONSO XII-PTA.DE ALCALA,3,-3.6875223541560382,40.420990976454135
796,ALFONSO XII-ESPALTER,3,-3.687525931471704,40.41439633454335
798,Pº. INFANTA ISABEL-DR.VELASCO,3,-3.6880667633570603,40.409636336419055
1092,PAYASO FOFO-AV.ALBUFERA,13,-3.658122047691759,40.39419796920287
2607,MATEO GARCIA-AV.DAROCA,15,-3.6510818914896044,40.431508326521055
2612,ALBA TORMES-EPOCA,11,-3.742829612886274,40.37913505410873
2613,ALBA TORMES-WITERICO,11,-3.741501463717506,40.38048593358148
2618,Cº VIEJO LEGANES-FALCINELO,11,-3.7289343617876103,40.38402533930583
2619,Cº VIEJO LEGANES-PELICANO,11,-3.7275060164734337,40.38595327070578
2620,Cº VIEJO LEGANES-AV.OPORTO,11,-3.7262674431363636,40.38800611911838
2623,Cº VIEJO LEGANES-GRAL.RICARDOS,11,-3.7222410506798114,40.39490526653758
1392,ALBERTO ALCOCER-Pº DE LA HABANA,5,-3.680979488123568,40.46064232942235
1393,ALBERTO ALCOCER-PADRE DAMIAN,5,-3.6836236111040845,40.46085194258215
1395,MIGUEL ANGEL-RUBEN DARIO,7,-3.690014738189782,40.435336514948006
1396,EDUARDO DATO-ZURBANO,7,-3.6932874936406574,40.43485747022661
1398,LUCHANA-PZA.DE CHAMBERI,7,-3.696852794404811,40.434169362096014
1399,FCO.DE ROJAS-LUCHANA,7,-3.6986352888272345,40.432104545396996
1404,RONDA DE SEGOVIA-GIL IMON,1,-3.7139060581008025,40.410110277138095
1405,RONDA DE SEGOVIA-Pº IMPERIAL,1,-3.71641859181435,40.412536183996004
1406,RONDA DE SEGOVIA-SEGOVIA,1,-3.7156913401652885,40.415090247830996
1410,RIBERA MANZANARES-SAN POL DE MAR,9,-3.7261189951625244,40.426818031671374
1412,RIBERA MANZANARES-FELIPE MORATILLA,9,-3.729746442727595,40.42976816167711
1415,RIBERA MANZANARES Nº 125,9,-3.7321109989721446,40.43147392967798
1416,COMANDANTE FORTEA-FELIPE MORATILLA,9,-3.7312048873943255,40.4294526380183
1417,COMANDANTE FORTEA-STA.OLALLA,9,-3.727912893510746,40.42700494666712
1419,GTA.SAN ANTONIO DE LA FLORIDA,9,-3.724030216125844,40.42661491828775
1422,CDAD.PLASENCIA-VIRGEN DEL PUERTO,1,-3.7189977284457143,40.4167724371071
1426,RONDA DE SEGOVIA-PTA.TOLEDO,2,-3.7111925846709095,40.40873060067769
1376,EDUARDO DATO-ZURBANO,7,-3.6926491095231073,40.434690126407965
1094,AV.MQUES.CORBERA-AV.DAROCA,15,-3.647542744131813,40.43004171790061
1096,CENTRO DE CARGA AEREA 2,21,-3.5767462262767835,40.45604738348109
1101,PRINCIPE DE VERGARA-JORGE JUAN,4,-3.678780979060285,40.42501562619842
1102,PRINCIPE DE VERGARA-GOYA,4,-3.6785903527560158,40.427160895678355
1105,PRINCIPE DE VERGARA-DIEGO DE LEON,4,-3.67785692546606,40.436300351510376
1107,PRINCIPE DE VERGARA-CANILLAS,5,-3.677246216207305,40.44241204335022
1110,PRINCIPE DE VERGARA-AUDITORIO NACIONAL,5,-3.676533072473817,40.448902703504984
1046,PASEO CASTELLANA-AZCA,5,-3.6893271413755904,40.45112439410372
981,TORRELAGUNA-AV.BADAJOZ,15,-3.6523296758110484,40.44472653736495
982,LOPEZ DE HOYOS-CTRA.CANILLAS,16,-3.6560793299957264,40.46531789587269
984,CTA.SAN VICENTE-ARRIAZA,9,-3.714742821191478,40.422357398535844
986,VIRGEN DEL PUERTO-GTA.SAN VICENTE,1,-3.718857005381478,40.42126881969596
988,VIRGEN DEL PUERTO-PTE.SEGOVIA,1,-3.7196055214027135,40.41629117600853
6158,SESEÑA-ILLESCAS,10,-3.7643480782528704,40.39855347466953
6157,ILLESCAS-SESEÑA,10,-3.7643385371623945,40.39875173683312
2827,ILLESCAS Nº103,10,-3.7608653659826694,40.39588274250793
6009,OCAÑA Nº12,10,-3.753555312162272,40.38597560672581
6168,PLAZA DEL ESTE-SAN AQUILINO,6,-3.688082283979191,40.4735911886422
640,Pº CASTELLANA-NUEVOS MINISTERIOS,7,-3.690149629085926,40.44737174334821
508,MINISTERIO AGRICULTURA,3,-3.6897034883021225,40.41064460571288
509,Pº PRADO-PZA.MURILLO,3,-3.6914430697252163,40.41478738583905
510,PZA.CANOVAS DEL CASTILLO,3,-3.6919531526083036,40.4174059658219
511,MARTINEZ DE LA RIVA-ARROYO DEL OLIVAR,13,-3.664960352182308,40.39581650926849
513,JAVIER DE MIGUEL,13,-3.662306591557737,40.39075061680522
515,JAVIER DE MIGUEL-PTO.DEL MILAGRO,13,-3.65536124690157,40.387754131761426
516,JAVIER DE MIGUEL-PTO.DE VELATE,13,-3.6543243297364554,40.38652575826383
518,AV.PABLO NERUDA-LUIS BUÑUEL,13,-3.64294265541777,40.390184248031936
520,JAVIER DE MIGUEL-PTO.DE VELATE,13,-3.6541369660754617,40.386643936882955
521,JAVIER DE MIGUEL-SAN ANSELMO,13,-3.6547583951454214,40.3875503383165
522,JAVIER DE MIGUEL,13,-3.6598603756421535,40.39000784121617
525,MOREJA Nº 26,12,-3.69679872519613,40.37065577793487
526,AV.GUADALAJARA-SAN ROMAN VALLE,20,-3.618874756695406,40.42143296764354
527,VILLALOBOS-AV.MIGUEL HERNANDEZ,13,-3.64934374598862,40.38316641597445
532,Cº POZO TIO RAIMUNDO-CTRA.V.VALLECAS,18,-3.6440558972513712,40.372231896877494
535,AV.BUENOS AIRES-MOGAMBO,13,-3.6512818626641246,40.381344682977186
536,VILLALOBOS,13,-3.649389396896562,40.383013004704516
537,CORAZON DE MARIA-STA.HORTENSIA,5,-3.665675651169945,40.44567746457628
540,AV.GUINDALERA-CAMILO JOSE CELA,4,-3.664831418322428,40.442574215478224
541,PZA.DE VENECIA,4,-3.661131131977374,40.44280264923806
542,AV.BADAJOZ-MARTINEZ VILLERGAS,15,-3.652840556008794,40.44390383239373
544,CONDESA VENADITO-TORRELAGUNA,15,-3.652169529228108,40.44645717148607
547,EMILIO VARGAS-ARTURO SORIA,15,-3.6503973269181107,40.45099868933428
548,AV.CAMILO JOSE CELA-CORAZON MARIA,5,-3.6659146435583865,40.444802213939305
5477,VALCARLOS - Pº SAN MILLAN DE LA COGOLLA,8,-3.6655152801926443,40.50468709258168
2824,CAMARENA Nº 320,10,-3.7564447230136295,40.38729007987391
3392,CAMARENA Nº 322,10,-3.756551356320649,40.387343436535105
3378,MAQUEDA-VALMOJADO,10,-3.7586262641366015,40.388510027668765
2799,VALMOJADO-MAQUEDA,10,-3.7585234687213473,40.388798992285935
724,OCAÑA-CAMARENA,10,-3.757917743094477,40.38731646875669
980,AV.CDAD.BARCELONA Nº 6,3,-3.6838392667975945,40.4076614115324
917,ANTONIO LOPEZ-GTA.MQUES.VADILLO,11,-3.7133186022159337,40.39912285454232
918,ANTONIO LOPEZ-INMACULADA CONCEPCION,11,-3.7096946137110334,40.397397400228975
924,ANTONIO LOPEZ-VADO,12,-3.694677270704289,40.38658762784914
925,ANTONIO LOPEZ-SOCUELLAMOS,12,-3.6943000017076844,40.38312139332531
927,"SAN MARIO,8",12,-3.6904190308494353,40.3791716219162
929,ESTAFETA-NAVASCUES,12,-3.6910200553864865,40.37458239605698
930,ESTAFETA-AV.SAN FERMIN,12,-3.6908498132411496,40.37290771873283
1011,DUQUESA DE PARCENT-CUART DE POBLET,10,-3.750068486179537,40.397701055848685
1012,DUQUESA DE PARCENT Nº 54,10,-3.746375305051904,40.39725648819733
1015,Pº ERMITA DEL SANTO-VIA CARPETANA,10,-3.723007402620098,40.40816181013486
1016,Pº ERMITA DEL SANTO-SEPULVEDA,10,-3.7225314300808665,40.40993956839722
1017,Pº. ERMITA DEL SANTO - AV.MANZANARES,10,-3.7219280097555654,40.41192532823143
1021,ENRIQUE LARRETA-AGUSTIN DE FOXA,5,-3.6851832059792673,40.4704012247963
1023,CTA.SAN VICENTE-ARRIAZA,1,-3.71389233591957,40.42219148286903
1029,NARVAEZ-AVDA. FELIPE II,4,-3.674240816763846,40.42603319339943
1030,CONDE DE PEÑALVER-HERMOSILLA,4,-3.674137062295408,40.42744821702847
1031,CONDE DE PEÑALVER-AYALA,4,-3.6739457428251323,40.42953942816304
1038,AV.MENENDEZ PELAYO-PZA.NIÑO JESUS,3,-3.6750567530530427,40.41331666799918
1039,MENENDEZ PELAYO-PZA.MARIANO CAVIA,3,-3.677215195191572,40.40994366435443
1043,JOSE ANTONIO ARMONA-Pº STA.Mª CABEZA,2,-3.69528003876224,40.40624180598073
1320,MEJIA LEQUERICA-HORTALEZA,1,-3.6960720489712484,40.42820108567989
1324,GRAL.ALVAREZ CASTRO-Gª PAREDES,7,-3.701224383911946,40.43846724792468
1325,GRAL.ALVAREZ CASTRO-JOSE ABASCAL,7,-3.7011481306543574,40.44020644890137
1328,ALCALA-MATEO GARCIA,15,-3.6516389218273106,40.434252942044765
1330,Pº ERMITA DEL SANTO-PTE.SAN ISIDRO,11,-3.7231155486838627,40.4050530112531
1335,AMPOSTA-POBLADURA VALLE,20,-3.618962070067794,40.42709919525539
1336,AMPOSTA-TEJEDORES,20,-3.6210963646097656,40.4297183878802
1337,ALBERIQUE-ALBAIDA,20,-3.6191728571293447,40.43080078457558
1338,ALBERIQUE-HELLIN,20,-3.616229259915811,40.431212914178744
1339,AV.ARCENTALES-AV.CANILLEJAS,20,-3.61023901624819,40.43629876933471
1343,POBLADURA VALLE-ALCONERA,20,-3.616890292684993,40.42872289119436
1344,AMPOSTA-POBLADURA VALLE,20,-3.6193961673999078,40.42687164353141
1345,POBLADURA VALLE-SAN ROMAN VALLE,20,-3.622059048264005,40.425442921801064
1346,POBLADURA VALLE-ARCOS JALON,20,-3.6246190611400886,40.424375056671146
1176,MERCAMADRID-CARNICAS,18,-3.6671504476738486,40.3610287214802
1180,LUIS HOYOS SAINZ-FTE.CARRANTONA,14,-3.6334964748229828,40.40561491498691
1181,VALDEBERNARDO-LUIS HOYOS SAINZ,14,-3.6302300842445776,40.405407542437736
1117,PRINCIPE DE VERGARA-FRANCISCO SILVELA,5,-3.6776852159293436,40.441508569034994
1173,AV.MORATALAZ-PZA.ENCUENTRO,14,-3.6484869752249365,40.408063341186725
1174,AV.MORATALAZ-Cº VINATEROS,14,-3.6451529036808785,40.409424348724194
1175,AV.MORATALAZ Nº 180 -COLEGIO SENARA,14,-3.6413838378552663,40.410913801478685
421,LOPEZ DE HOYOS-GTA.LUIS ROSALES,16,-3.652959085736829,40.46832654974954
422,LOPEZ DE HOYOS-GRAN VIA DE HORTALEZA,16,-3.651524629111243,40.470028333728706
425,MAR CASPIO-PZA.SANTOS DE LA HUMOSA ,16,-3.64657400457762,40.47534440656551
426,MAR DE LAS ANTILLAS-MAR NEGRO,16,-3.6437959479880457,40.47598153655644
429,SANTA ADELA-SANTA SUSANA,16,-3.6464867237266487,40.481002523897416
431,SANTA SUSANA-MAR DE LAS ANTILLAS,16,-3.6454109367472767,40.4783148583724
1349,ASCAO-GUTIERRE DE CETINA,15,-3.6400244736295337,40.431633148984034
558,FCO.SILVELA-PADILLA,4,-3.6702200034011985,40.433065604625895
559,CONDESA VENADITO-ARTURO SORIA,15,-3.648252023868782,40.44865038308459
561,TORRELAGUNA-JOSE SILVA,15,-3.6592479172791506,40.45521880616948
570,FCO.SILVELA-AV.AMERICA,4,-3.675641058221377,40.43872774288075
439,ARTURO SORIA-LOPEZ DE HOYOS,15,-3.6589644629766176,40.46121140153449
440,LOPEZ DE HOYOS-PEDRO SALINAS,15,-3.6596932817987358,40.458549591916494
441,AV.RAMON Y CAJAL-AV.LA PAZ,15,-3.6597833633703276,40.45570223617039
444,LOPEZ DE HOYOS-CLARA DEL REY,5,-3.6660541986836686,40.45057618180625
446,LOPEZ DE HOYOS-CARDENAL SILICEO,5,-3.6703183576532723,40.447713692254226
450,LOPEZ DE HOYOS-FCO.SILVELA,5,-3.6798258484793935,40.4421446460905
452,SERRANO-MARIA DE MOLINA,5,-3.6849460122702977,40.44008738805634
454,SERRANO-MALDONADO,4,-3.685326819469845,40.4357878309192
459,PZA.CANOVAS DEL CASTILLO,1,-3.6931150078937054,40.416912516470994
460,Pº PRADO-PZA.PLATERIA MTNEZ.,1,-3.6920280256798876,40.41436046004326
461,Pº PRADO-ATOCHA,1,-3.6912001285166576,40.411779816013365
464,Pº REINA CRISTINA-ANDRES TORREJON,3,-3.680021308574241,40.40888213971006
465,CAVANILLES-PZA.MARIANO CAVIA,3,-3.6765786743075966,40.40875819565427
466,CAVANILLES-ABTAO,3,-3.674080466600733,40.407610621450246
467,DR.ESQUERDO-CAVANILLES,3,-3.6710941673400685,40.405961319709725
470,MONTE IGUELDO-MARIA BOSCH,13,-3.6665689070171594,40.39881627904762
471,AV.OROVILLA-AV.FELICIDAD,17,-3.6880749976257197,40.36067185856416
472,ARROYO OLIVAR-MONTE PERDIDO,13,-3.660653762520316,40.394030374238895
473,ARROYO OLIVAR-C.MARTIN ALVAREZ,13,-3.659481419772796,40.39343345893548
352,AV.SENECA-TRV. ANTONIO NEBRIJA,9,-3.7262015873866314,40.437781477952775
353,RAMIREZ DE PRADO-VARA DE REY,2,-3.6872034470813237,40.40123601567519
354,MENDEZ ALVARO-MENESES,2,-3.6816385801868097,40.39980048396041
357,AV.CDAD.BARCELONA-LUIS MITJANS,3,-3.6708162571586844,40.40171065126842
359,AV.PEÑA PRIETA-FRANCISCO IGLESIAS,13,-3.665713482730138,40.40169510421141
362,SIERRA TOLEDANA-PATIO SANTIAGO,13,-3.658165772855335,40.40594556127084
363,AV.MORATALAZ-PZA.CORR.ALONSO AGUILAR,14,-3.6558457719411277,40.40854435032854
1048,Pº CASTELLANA-PZA.DE LIMA,5,-3.688942743095919,40.45505460572906
1052,Pº CASTELLANA-RAFAEL SALGADO,6,-3.6893207555065435,40.45626856465971
1053,PZA.EMPERADOR CARLOS V,1,-3.6920157528827966,40.409711862725196
1054,RONDA DE ATOCHA,1,-3.6973969121514463,40.40809392929798
1055,PUERTA DE ALCALA,4,-3.6868993295488015,40.42231900923278
1058,CENTRO DE CARGA AEREA 4,21,-3.5742750232267717,40.45392455288385
1060,JOSE LUIS ARRESE-Mª TERESA SAENZ HEREDIA,15,-3.6536715912903914,40.42379098076461
1063,VILLUERCAS-BARROS,13,-3.664528601498054,40.377071055528454
1065,ALIANZA-UNANIMIDAD,17,-3.684296501858932,40.359703277249935
1066,FCO.VILLAESPESA-EZEQUIEL SOLANA,15,-3.6420838555346586,40.43123433824312
1067,ANTONIA RGUEZ.SACRISTAN-CENTRO DE SALUD,11,-3.7460705834852344,40.37498802301832
1071,EMILIO MUÑOZ-MIGUEL YUSTE,20,-3.6217559297162523,40.43604819695561
1072,CRONOS-SAN ROMUALDO,20,-3.618718342199704,40.43909153337314
1073,PZA.CRONOS,20,-3.616999490830808,40.441956584707924
1076,LUCANO-AQUILES,20,-3.6101189225057433,40.44127239026433
1080,CANAL DE BOSFORO-ESFINGE,20,-3.6079535517047665,40.44304957093494
1081,SAN MARIANO-NECTAR,20,-3.610579148665425,40.443918614080204
1082,NECTAR-AV.CANILLEJAS,20,-3.613850207156635,40.44314452819018
1083,PZA.CRONOS,20,-3.6176097267165654,40.44163800931677
1084,CRONOS-SAN ROMUALDO,20,-3.6190002352252537,40.43897290653359
1089,PAYASO FOFO-SIERRA BERMEJA,13,-3.6587868969134663,40.392293264214956
1091,PAYASO FOFO-AV.ALBUFERA,13,-3.6579557786972665,40.39406377928561
582,Pº CASTELLANA-MARIA DE MOLINA,5,-3.6888627902793396,40.44029834365484
848,ALCALA-CEDACEROS,1,-3.6964603023243328,40.420126654314245
850,ROBERTO DOMINGO-AV.DONOSTIARRA,4,-3.659811540253936,40.43688225604883
853,ALCALA-HERMOSILLA,4,-3.6716318329897093,40.42803037066229
856,GOYA-PRINCIPE VERGARA,4,-3.6791433051424978,40.42704953959615
858,GOYA-SERRANO,4,-3.687376685406016,40.427523392826565
27,ISAAC PERAL-FERNANDEZ DE LOS RIOS,9,-3.716933530688847,40.43772222247486
455,SERRANO-MARQUES VILLAMAGNA,4,-3.685801892576414,40.4314877101871
1367,AVDA. AVIACION,10,-3.7825189258296823,40.38026063661836
1370,Pº EXTREMADURA Nº 445,10,-3.778020690039947,40.389642404322224
1374,LUCHANA-FRANCISCO DE ROJAS,7,-3.698170069774585,40.432719969762644
1297,SEBASTIAN ALVARO,10,-3.77124247024159,40.39553469854713
1301,Pº EXTREMADURA-SAN MANUEL,10,-3.75797556006783,40.40402788828198
1305,JUAN DUQUE-MORENO NIETO,2,-3.718141082216752,40.41380477963123
1310,Pº IMPERIAL-GTA.PIRAMIDES,2,-3.7135990764069504,40.40336439166208
1226,JOAQUIN TURINA-POLVORANCA,11,-3.753161363463936,40.3738789771685
1231,OLIVA DE PLASENCIA-GRAL.R.BASART,10,-3.773681787140942,40.38113993680896
1236,AV.GRAL.FANJUL -EST.RENFE AGUILAS,10,-3.7795026868709,40.38329004132487
1160,PZA.ACHICORIA,10,-3.7436482554215615,40.40429211477719
1168,SEGOVIA-VIRGEN DEL PUERTO,2,-3.7183625197957637,40.41578539237945
1172,DR.ESQUERDO-PZA.CONDE CASAL,3,-3.6685680674941574,40.40912012125985
1182,VALDEBERNARDO-HACIENDA PAVONES,14,-3.6307997969659174,40.402053056200785
1095,JOSE LUIS ARRESE-Mª TERESA SAENZ HEREDIA,15,-3.6538711944880173,40.42370877036769
1103,PRINCIPE DE VERGARA-AYALA,4,-3.6783551870178135,40.429567687342974
405,VELAZQUEZ-DIEGO DE LEON,4,-3.681795951917893,40.43640330855756
408,LOPEZ DE HOYOS-FCO.SILVELA,5,-3.679541510617552,40.442011183116065
414,FDEZ.DE LOS RIOS-VALLEHERMOSO,7,-3.7075760547081016,40.43700511369763
417,AV.RAMON Y CAJAL-AV.LA PAZ,15,-3.659616056748247,40.45547796637104
418,LOPEZ DE HOYOS-CAÑAS,15,-3.6594113803049524,40.45866831767135
1201,Pº DE LA VENTA-PARQUE DE ATRACCIONES,9,-3.7512499069935643,40.41069343639574
2863,ANTONIO MACHADO-VALDERRODRIGO,9,-3.7180542120303244,40.47211154263849
2974,CESAR MANRIQUE-LA CABRERA,8,-3.7189859416303626,40.474303932858184
3405,VENTISQUERO CONDESA-C.HERRERA ORIA,8,-3.713545914886269,40.48529252491829
4024,CERRO MINGUETE-VENTISQUERO DE LA CONDESA,8,-3.716179245462765,40.488825751240675
1649,RAMON GOMEZ SERNA-JULIO CALVO,8,-3.721122577527861,40.4843536040538
435,LOPEZ DE HOYOS-BIOSCA,16,-3.65004526264635,40.471973594454084
437,LOPEZ DE HOYOS-GTA.LUIS ROSALES,16,-3.653266899646492,40.46844192672507
341,JOAQUIN COSTA-N.MINISTERIOS,5,-3.6888493182494493,40.44821733780398
342,Pº CASTELLANA-NUEVOS MINISTERIOS,7,-3.6902983018695896,40.44576725356826
348,ALMAGRO Nº 3,7,-3.6937234468296083,40.4302422362604
5462,AVDA.LOS ROSALES-ORO,17,-3.6757220253552427,40.352546389748554
5463,AV.ROSALES-MATACHEL,17,-3.6783918817858385,40.35574702185453
1204,Pº EXTREMADURA-CARLINA,10,-3.7498756944380536,40.4068735178306
1207,RONDA DE VALENCIA,1,-3.7001350924783667,40.40733863476006
1209,Pº ACACIAS-RIBERA DE CURTIDORES,2,-3.705481451605213,40.4058106266013
1210,Pº ACACIAS-Pº OLMOS,2,-3.7084779422165477,40.40498148541801
1212,GRAL.RICARDOS-GTA.MQUES.VADILLO,11,-3.7157688196993957,40.39904464621138
664,SAINZ DE BARANDA-JUAN ESPLANDIU,3,-3.664553067644089,40.420296484484325
666,SAINZ DE BARANDA-NARVAEZ,3,-3.67435860347396,40.418942390856984
668,NARVAEZ,3,-3.6744582113366944,40.423013897336254
670,ALCALA-PRINCIPE DE VERGARA,4,-3.6781099843576257,40.425109655063295
671,ALCALA-CASTELLO,4,-3.6799642787041527,40.424287948261046
674,FDEZ.DE LOS RIOS-GUZMAN EL BUENO,7,-3.7120939910080835,40.43721160056679
675,FDEZ.DE LOS RIOS-MAGALLANES,7,-3.7033764656264534,40.436796513236516
677,ELOY GONZALO-JUAN DE AUSTRIA,7,-3.6982921147748775,40.43653905492199
678,SANTA PRISCA,15,-3.647745257199337,40.42903157088265
686,AV.PIO XII-CENTRO COMERCIAL,5,-3.6746232285418965,40.46428320208116
687,AV.PIO XII-COMANDANTE FRANCO,5,-3.673968864336887,40.467259981901336
690,AV.PIO XII-NUNCIATURA,5,-3.6721974531118846,40.470603618651815
692,AV.PIO XII-CENTRO COMERCIAL,5,-3.6748482274168857,40.464371978119246
695,AV.DR.ARCE-PZA.SANTA GEMA,5,-3.679414647811478,40.449318231139245
704,FERNANDO EL CATOLICO-MAGALLANES,7,-3.7045914956848165,40.43572604926365
705,FERNANDO EL CATOLICO-VALLEHERMOSO,7,-3.7076357402786053,40.43595069417934
574,MQUES.DE ZAFRA-MQUES.MONDEJAR,4,-3.665707133311846,40.42855113399251
575,FCO.SILVELA-PZA.M.BECERRA,4,-3.668305002502027,40.431364978069716
576,FCO.SILVELA-AZCONA,4,-3.670870139048537,40.43442219557392
5426,EDUARDO BARREIROS-AV.POBLADOS,12,-3.6946492090109615,40.372389452907996
478,AV.PALOMERAS-PUERTO DEL PICO,13,-3.647478792557038,40.38771746516667
480,EXTREMEÑOS-AV.PABLO NERUDA,13,-3.6447063239988857,40.38732754980172
481,EXTREMEÑOS-AV.RAFAEL ALBERTI,13,-3.641796168456046,40.38608246721925
482,RAFAEL ALBERTI-ARAGONESES,13,-3.643562321815224,40.384730292065036
486,VILLALOBOS-LEONESES,13,-3.6446534661931635,40.384255739250314
487,RAFAEL ALBERTI-ARAGONESES,13,-3.6430665868247942,40.384633950393436
491,AV.PALOMERAS-PUERTO DEL PICO,13,-3.647479914336642,40.387834577217774
492,AV.PALOMERAS-PEDRO LABORDE,13,-3.6492171296512628,40.3883833989599
494,ARROYO OLIVAR-JESUS JIMENEZ,13,-3.652736558457156,40.39047171048832
495,ARROYO OLIVAR-TTE.MUÑOZ DIAZ,13,-3.6561482410609174,40.392362325214634
500,AV.CDAD.BARCELONA-M30,3,-3.6692901849872848,40.40111588881637
501,AV.CDAD.BARCELONA-PACIFICO,3,-3.672950775618825,40.40304960604141
502,CAVANILLES-DR.ESQUERDO,3,-3.671098373625149,40.40638472145286
504,CAVANILLES-PZA.MARIANO CAVIA,3,-3.6767580650036202,40.40901840832646
377,ENCOMIENDA PALACIOS-PICO ARTILLEROS,14,-3.6413166769637653,40.40259879781773
378,ENCOMIENDA DE PALACIOS-ARROYO FONTARRON,14,-3.645240365792369,40.402540927138475
380,ARROYO FONTARRON-CORR.J.FCO.LUJAN,14,-3.6486406712449546,40.40443182212914
381,ARROYO FONTARRON-PZA.ENCUENTRO,14,-3.650033642559998,40.40712671973874
384,PZA.CORR.ALONSO AGUILAR,14,-3.6575115628768318,40.40895831339885
385,SIERRA ELVIRA-SIERRA TOLEDANA,13,-3.658209728348131,40.406828199931546
386,SIERRA ELVIRA-JULIAN DEL CERRO,13,-3.6614957741020926,40.406620251932836
387,AV.PEÑA PRIETA-PILAR RUEDA,13,-3.6626418540019134,40.40451457439006
392,MENDEZ ALVARO-PEDRO BOSCH,2,-3.679371754853067,40.39820120338569
394,MENDEZ ALVARO-COMERCIO,2,-3.683200957467211,40.40164712976595
396,ANCORA-MENDEZ ALVARO,2,-3.687309981283768,40.40475792763019
397,PALOS DE LA FRONTERA-Pº STA.Mª CABEZA,2,-3.694974585540514,40.405189582665514
1106,PRINCIPE DE VERGARA-MARIA DE MOLINA,5,-3.677526721574431,40.439815803981496
1998,ISLA DE AROSA-ISLAS CIES,8,-3.7155927937738826,40.483604205093656
364,AV.MORATALAZ-PARQUE DARWIN,14,-3.6536832948946585,40.407952991578846
367,ARROYO FONTARRON-E.PALACIOS,14,-3.6468441792800985,40.402658091096264
368,ENCOMIENDA PALACIOS-A.FONTARRON,14,-3.645497631283199,40.40233228201587
369,ENCOMIENDA PALACIOS-PICO ARTILLEROS,14,-3.6414455299597512,40.402517001163645
371,ENCOMIENDA PALACIOS-FTE.CARRANTONA,14,-3.636295954533657,40.40004093533401
373,VALDEBERNARDO-HACIENDA PAVONES,14,-3.630983458230071,40.40152952688292
374,ENCOMIENDA PALACIOS-VALDEBERNARDO,14,-3.6332002456532773,40.39915702470114
339,SERRANO-GUADIANA,5,-3.6824500096870576,40.449777823786356
6151,PRINCIPE DE VERGARA-MARIA DE MOLINA,4,-3.6775901354684732,40.43908570208267
264,GUETARIA-TOLOSA,12,-3.7140648072107454,40.374946876635306
265,AV.POBLADOS-AV.RAFAELA YBARRA,12,-3.711878389200485,40.37538378723747
259,AV.RAFAELA YBARRA-CESTONA,12,-3.7110507691157046,40.37397445082593
2810,AV.POBLADOS-Cº VIEJO VILLAVERDE,12,-3.7087247156946,40.37457432439114
5406,LEIZA-AV.RAFAELA YBARRA,12,-3.711556617018144,40.3727911459752
2813,AV.POBLADOS-Cº VIEJO VILLAVERDE,12,-3.708703329302317,40.374781664882406
488,EXTREMEÑOS-AV.RAFAEL ALBERTI,13,-3.641762535909887,40.386262836057206
493,AV.BUENOS AIRES-AV.PALOMERAS,13,-3.651462973663026,40.38913653871359
420,LOPEZ DE HOYOS-NAVARRO AMANDI,16,-3.657174341705512,40.46390627276284
424,LOPEZ DE HOYOS-VALDETORRES DEL JARAMA,16,-3.647720025390273,40.4742929480252
428,MAR DE LAS ANTILLAS-ABIZANDA,16,-3.6477497755526285,40.47984230351773
50,GRAN VIA HORTALEZA-HARO,16,-3.6498897940603126,40.46930781261742
56,GUZMAN EL BUENO-CEA BERMUDEZ,7,-3.711528905753072,40.44064751144978
60,ALCALA-LAGASCA,3,-3.6842006940028553,40.4223980781627
65,DR.ESQUERDO-JORGE JUAN,4,-3.667200441005295,40.424578547253674
125,BAILEN-YESEROS,1,-3.712344054642609,40.41398479390267
134,STA.ENGRACIA-PZA.ALONSO MARTINEZ,7,-3.694348705247098,40.43028352689359
138,STA.ENGRACIA-BRETON LOS HERREROS,7,-3.6991676102009787,40.441380608552265
181,HNOS.GARCIA NOBLEJAS-VALDECANILLAS,20,-3.6303198759931408,40.43144323671781
199,GRAL.MOSCARDO-BASILICA,6,-3.695386399834609,40.4508989052002
244,EMBAJADORES-GTA.STA.Mª CABEZA,2,-3.6975584956541336,40.40205688352141
249,MARCELO USERA-GTA. DE CADIZ,12,-3.698376238264739,40.38996176801514
258,AV.RAFAELA YBARRA-PQUE.DE LA PALOMA,12,-3.710994802305078,40.37761447213
268,AV.RAFAELA YBARRA-MARINA VEGA,12,-3.7099669570642497,40.38181902717587
307,COSTA RICA-VICTOR DE LA SERNA,5,-3.670868130450351,40.460305075275635
311,ARTURO SORIA-AÑASTRO,15,-3.6646369182281395,40.469503212129815
323,CUEVAS DE ALMANZORA-AV.SAN LUIS,16,-3.662044338530462,40.47577031793464
327,ARTURO SORIA-SERRANO GALVACHE,15,-3.665993890181603,40.47312601364245
332,RAMIREZ DE PRADO-BUSTAMAMTE,2,-3.6916711798403337,40.402533703284476
3499,Pº LOS OLIVOS-CARAMUEL,10,-3.7286682125023947,40.40851365468957
3502,SILVANO-JOSE DOMINGO RUS,16,-3.6316665864882367,40.4644719395217
3944,SESEÑA-VALMOJADO,10,-3.755883638080902,40.39927579978118
3965,COMERCIO Nº 1,3,-3.6795083130090958,40.40592117471668
3945,SESEÑA-VALMOJADO,10,-3.755932080324226,40.39939260068788
3963,MENENDEZ PELAYO-GRANADA,3,-3.678839575143484,40.40739358124157
3962,MENENDEZ PELAYO-CAVANILLES,3,-3.677852797158848,40.40888586714033
3633,AMPOSTA-TEJEDORES,20,-3.62116568718758,40.42956486156953
3952,Cº CAMPAMENTO-METRO CASA DE CAMPO,9,-3.7592252145674014,40.4051187907936
1216,GRAL.RICARDOS-CLARISAS,11,-3.727586738546047,40.39235821568916
1824,CONGOSTO-LA REVOLTOSA,18,-3.6188527123380565,40.377856105985636
1832,BURJASOT-BENIFERRI,17,-3.690078863399773,40.346984038708875
1673,AV.SAN LUIS-AÑASTRO,16,-3.6574306649997443,40.4732561308914
1686,PRINCIPE VIANA-MIRAVALLES,8,-3.7985554215863835,40.471213914308066
1691,Pº SAN ILLAN-SAN CANDIDO,11,-3.720710517421094,40.40165359829811
1606,CLARA CAMPOAMOR-AVEFRIA,11,-3.7319639044574906,40.38527647890021
1616,JOSE DEL HIERRO-VIRGEN DEL LLUC,15,-3.651380758758048,40.436821970206445
1629,AV.CANILLEJAS A VICALVARO-ALIAGA,20,-3.611222756121344,40.438167450594186
1538,AV.REINA VICTORIA-AV.PABLO IGLESIAS,6,-3.706370664931254,40.44912959144583
1552,AVDA. MARTIN FIERRO,9,-3.7298744552015655,40.43724482916254
1556,AV.DE VALLADOLID Nº 9,9,-3.7264701917141654,40.42877979055069
1491,AV.RAMON Y CAJAL-PPE.VERGARA,5,-3.675837754612677,40.45365451278369
1430,RAIMUNDO FDEZ.VILLAVERDE-CTE.ZORITA,6,-3.696990355697164,40.448627985920716
860,GENOVA-PZA.ALONSO MARTINEZ,7,-3.69358395982345,40.42928811681737
862,CARRANZA-GTA.BILBAO,7,-3.701714238258444,40.43114895561425
863,ALBERTO AGUILERA-GTA.R.JIMENEZ,7,-3.70562299088875,40.43176479920465
866,ALBERTO AGUILERA-ARGUELLES,7,-3.7142262785871045,40.43258583055059
868,Pº PINTOR ROSALES-FCO.J.ALCANTARA,9,-3.7207893017549596,40.43112166453055
869,MQUES.URQUIJO-MARTIN DE LOS HEROS,9,-3.7171286701311996,40.43167596668416
870,ALBERTO AGUILERA-ARGUELLES,1,-3.713894091756842,40.43238968449911
872,ALBERTO AGUILERA-GTA.R.JIMENEZ,1,-3.7053375172078478,40.43152329818698
875,GENOVA-PZA.ALONSO MARTINEZ,1,-3.693807476814303,40.42924173020827
877,GOYA-SERRANO,4,-3.6870318039486656,40.42722814533547
881,ALCALA-GOYA,4,-3.6734718927504773,40.42694758877537
882,ALCALA-HERMOSILLA,4,-3.6714066016564266,40.42790555274802
885,ROBERTO DOMINGO-AV.DONOSTIARRA,4,-3.659504916637223,40.43687499708122
889,VIRGEN DEL SAGRARIO-JOSE DEL HIERRO,15,-3.6480939653679525,40.438335945742004
898,ALCOCER-VIRGEN DESAMPARADOS,17,-3.6963000952296983,40.351964839817576
901,DR.PEREZ DOMINGUEZ-AV.REAL DE PINTO,17,-3.7055706368630363,40.34887256315443
903,Pº. ALBERTO PALACIOS-ALADIERNA,17,-3.709672336484869,40.34812673147493
586,RIOS ROSAS-SANTA ENGRACIA,7,-3.700079101083937,40.44399671058787
587,PZA.JUAN ZORRILLA,7,-3.703393114373469,40.44404866069154
588,AV.FILIPINAS-VALLEHERMOSO,7,-3.707269400466059,40.44261960039817
594,CEA BERMUDEZ-VALLEHERMOSO,7,-3.707437176253817,40.44062758420838
596,JOSE ABASCAL-SANTA ENGRACIA,7,-3.6992628944618953,40.440334987480945
598,JOSE ABASCAL-Pº CASTELLANA,7,-3.6903560172579883,40.439884028565956
606,ALCALA Nº194,4,-3.6632872889176897,40.43183532474276
